id,name,lng,lat,address,city,province,count,full_address
0,红星三巷,112.952431,35.638569,红星三巷,晋城市,山西省,1,山西省晋城市泽州县北义城镇北义城村红星三巷
1,锦泰嘉园小区,112.902649,35.550671,锦泰嘉园小区,晋城市,山西省,1,山西省晋城市泽州县北石店镇锦泰嘉园小区
2,王家巷,113.277977,35.770893,王家巷,晋城市,山西省,1,山西省晋城市陵川县崇文镇城南社区王家巷
3,,112.456207,35.677219,中乡村,晋城市,山西省,3,山西省晋城市沁水县郑庄镇中乡村
4,商业园B区,112.40662,35.49018,商业园B区,晋城市,山西省,1,山西省晋城市阳城县水村商业园B区
5,建行小区,112.856483,35.479191,建行小区,晋城市,山西省,1,山西省晋城市城区钟家庄迎宾街建行小区
6,兴华街北小区,112.520851,37.887348,兴华街北小区,太原市,山西省,4,山西省太原市尖草坪区汇丰街道兴华街北小区
7,南寨兴安社区64号楼,112.536919,37.975979,南寨兴安社区64号楼,太原市,山西省,1,山西省太原市尖草坪区南寨兴安社区64号楼
8,东方红小区,112.59063,37.852959,东方红小区,太原市,山西省,1,山西省太原市迎泽区桥东街道东方红小区
9,牛站巷迎泽苑8号楼,112.561471,37.848552,牛站巷迎泽苑8号楼,太原市,山西省,1,山西省太原市迎泽区迎泽街道牛站巷迎泽苑8号楼
10,胜利桥东路省统计局宿舍,112.563538,37.877636,胜利桥东路省统计局宿舍,太原市,山西省,1,山西省太原市杏花岭区巨轮街胜利桥东路省统计局宿舍
11,晋安3号院,112.578262,37.895027,晋安3号院,太原市,山西省,1,山西省太原市杏花岭区胜利东街晋安3号院
12,焦化小区,112.483788,37.761532,焦化小区,太原市,山西省,2,山西省太原市晋源区焦化小区
13,华泰御景湾,112.544342,37.798328,华泰御景湾,太原市,山西省,1,山西省太原市小店区华泰御景湾
14,汇泰丽城,112.577393,37.723492,汇泰丽城,太原市,山西省,1,山西省太原市小店区正阳街汇泰丽城
15,山西省政法管理干部学院宿舍,112.57749,37.83687,山西省政法管理干部学院宿舍,太原市,山西省,1,山西省太原市小店区营盘街道体育北街6号山西省政法管理干部学院宿舍
16,庆丰小区,112.875748,36.116348,庆丰小区,长治市,山西省,1,山西省长治市长子县庆丰小区
17,,113.180862,37.889339,田园路,晋中市,山西省,1,山西省晋中市寿阳县田园路
18,莲花社区巴黎都市,120.577332,30.64662,莲花社区巴黎都市,嘉兴市,嘉兴市,1,嘉兴市桐乡市梧桐街道莲花社区巴黎都市
19,胜丰村8组,120.770958,30.84025,胜丰村8组,嘉兴市,嘉兴市,1,嘉兴市秀洲区油车港镇胜丰村8组
20,电厂小区,131.017197,45.757374,电厂小区,七台河市,黑龙江,1,黑龙江七台河市桃山区电厂小区
21,银泉小区,131.010956,45.779263,银泉小区,七台河市,黑龙江,1,黑龙江七台河市桃山区银泉小区
22,,130.564041,45.751255,城西街1委,七台河市,黑龙江,1,黑龙江七台河市勃利县城西街1委
23,北岸新城,130.953857,45.803532,北岸新城,七台河市,黑龙江,1,黑龙江七台河市新兴区北岸新城
24,学府小区,131.590149,46.721451,学府小区,双鸭山,黑龙江,1,黑龙江双鸭山友谊县学府小区
25,中央街公寓,132.197113,46.323204,中央街公寓,双鸭山,黑龙江,1,黑龙江双鸭山宝清县宝清镇中央大街中央街公寓
26,和平里小区,132.20491,46.334091,和平里小区,双鸭山,黑龙江,1,黑龙江双鸭山宝清县宝清镇和平里小区
27,中海寰宇天下小区,118.062218,24.560064,中海寰宇天下小区,厦门市,福建省,1,福建省厦门市集美区杏林街道中海寰宇天下小区
28,聚镇10栋,118.028816,24.58091,聚镇10栋,厦门市,福建省,1,福建省厦门市集美区聚镇10栋
29,龙湖春江郦城2期,118.051826,24.583731,龙湖春江郦城2期,厦门市,福建省,1,福建省厦门市集美区龙湖春江郦城2期
30,叶厝田乾里,118.109901,24.59964,叶厝田乾里,厦门市,福建省,1,福建省厦门市集美区侨英街道叶厝田乾里
31,锦绣祥安小区一期8号楼,118.25766,24.65724,锦绣祥安小区一期8号楼,厦门市,福建省,1,福建省厦门市翔安区锦绣祥安小区一期8号楼
32,五星三里4号楼,118.259209,24.655949,五星三里4号楼,厦门市,福建省,1,福建省厦门市翔安区马巷镇五星三里4号楼
33,殿前五组,118.105911,24.522249,殿前五组,厦门市,福建省,1,福建省厦门市湖里区殿前街道殿前五组
34,乌石浦二期花园小区109号,118.129603,24.504488,乌石浦二期花园小区109号,厦门市,福建省,1,福建省厦门市湖里区江头街道乌石浦二期花园小区109号
35,汇利花园A栋,118.03758,24.49798,汇利花园A栋,厦门市,福建省,1,福建省厦门市海沧区嵩屿街道沧虹路331号汇利花园A栋
36,假日大厦,118.127289,24.481844,假日大厦,厦门市,福建省,1,福建省厦门市思明区假日大厦
37,武夷嘉园,118.083298,24.47613,武夷嘉园,厦门市,福建省,1,福建省厦门市思明区武夷嘉园
38,,118.169197,24.4818,洪文石村北片区,厦门市,福建省,1,福建省厦门市思明区洪文石村北片区
39,曾厝垵社,118.124977,24.42701,曾厝垵社,厦门市,福建省,1,福建省厦门市思明区环岛路曾厝垵社
40,碧湖豪庭,118.116814,24.48451,碧湖豪庭,厦门市,福建省,1,福建省厦门市思明区碧湖豪庭
41,,118.11731,24.481501,莲坂新村,厦门市,福建省,1,福建省厦门市思明区莲坂新村
42,黄厝塔头,118.140663,24.43417,黄厝塔头,厦门市,福建省,1,福建省厦门市思明区黄厝塔头
43,,118.067146,24.444639,内厝澳路,厦门市,福建省,1,福建省厦门市思明区鼓浪屿内厝澳路
44,,118.145683,24.433599,环岛路黄厝村,厦门市,福建省,1,福建省厦门市思明区环岛路黄厝村
45,金象嘉园二期,118.106552,24.47241,金象嘉园二期,厦门市,福建省,1,福建省厦门市思明区金象嘉园二期
46,半山御景5号,118.113739,24.496262,半山御景5号,厦门市,福建省,1,福建省厦门市思明区筼筜街道半山御景5号
47,武夷春晓,119.278748,26.087931,武夷春晓,福州市,福建省,1,福建省福州市鼓楼区洪山镇武夷春晓
48,,119.30709,26.11265,华大街道融侨路41号,福州市,福建省,1,福建省福州市鼓楼区华大街道融侨路41号
49,宏宙花园,119.543777,26.19665,宏宙花园,福州市,福建省,1,福建省福州市连江县敖江镇长汀村宏宙花园
50,,119.670029,26.34691,北营村,福州市,福建省,2,福建省福州市连江县官坂镇北营村
51,,119.53957,26.19753,潘渡,福州市,福建省,1,福建省福州市连江县潘渡
52,,119.660393,26.34955,龙头村,福州市,福建省,1,福建省福州市连江县透堡镇龙头村
53,,119.635048,26.376419,东湾村,福州市,福建省,2,福建省福州市连江县马鼻镇东湾村
54,,119.660141,26.371309,墙兜村,福州市,福建省,1,福建省福州市连江县马鼻镇墙兜村
55,,119.645233,25.915541,仙岐村,福州市,福建省,1,福建省福州市长乐区漳港街道仙岐村
56,,119.630707,25.928499,龙峰村,福州市,福建省,1,福建省福州市长乐区漳港街道龙峰村
57,,119.505234,25.957411,航辉社区,福州市,福建省,2,福建省福州市长乐区航城街道航辉社区
58,江南水都名筑,119.279671,26.044538,江南水都名筑,福州市,福建省,1,福建省福州市仓山区江南水都名筑
59,,119.03701,25.251369,营边村,莆田市,福建省,1,福建省莆田市秀屿区东庄镇营边村
60,,119.236008,25.25511,埭头村,莆田市,福建省,1,福建省莆田市秀屿区埭头镇埭头村
61,埭头村新街口,119.234375,25.255232,埭头村新街口,莆田市,福建省,1,福建省莆田市秀屿区埭头镇埭头村新街口
62,湖东村顶湖,119.248528,25.25865,湖东村顶湖,莆田市,福建省,1,福建省莆田市秀屿区湖东村顶湖
63,,119.036163,25.23472,苏厝村,莆田市,福建省,1,福建省莆田市秀屿区苏厝村
64,鼎秀苑小区,119.094109,25.32518,鼎秀苑小区,莆田市,福建省,1,福建省莆田市秀屿区鼎秀苑小区
65,,118.984108,25.225901,莆头村,莆田市,福建省,1,福建省莆田市秀屿区东庄镇莆头村
66,,119.083488,25.16707,何山村,莆田市,福建省,1,福建省莆田市湄洲湾北岸开发区东埔镇何山村
67,,119.122238,25.139999,港里村,莆田市,福建省,1,福建省莆田市湄洲湾北岸开发区山亭镇港里村
68,铺头村新厝,118.750458,25.23278,铺头村新厝,莆田市,福建省,1,福建省莆田市仙游县枫亭镇铺头村新厝
69,星庄村刘前,118.833412,25.38859,星庄村刘前,莆田市,福建省,1,福建省莆田市仙游县盖尾镇星庄村刘前
70,金沙村上库,118.577957,25.321251,金沙村上库,莆田市,福建省,1,福建省莆田市仙游县龙华镇金沙村上库
71,洋坑村柯厝,118.590729,25.363359,洋坑村柯厝,莆田市,福建省,1,福建省莆田市仙游县大济镇洋坑村柯厝
72,木兰社区,118.683548,25.355551,木兰社区,莆田市,福建省,1,福建省莆田市仙游县鲤城街道木兰社区
73,景隆凯旋城,119.107147,25.469419,景隆凯旋城,莆田市,福建省,1,福建省莆田市涵江区国欢镇景隆凯旋城
74,,118.95874,25.697781,岫山村,莆田市,福建省,1,福建省莆田市涵江区庄边镇岫山村
75,保利城2期,119.087074,25.465982,保利城2期,莆田市,福建省,1,福建省莆田市涵江区白塘镇保利城2期
76,东南香小区,119.097931,25.448988,东南香小区,莆田市,福建省,1,福建省莆田市涵江区港头路东南香小区
77,呈山村沟戈,119.139168,25.35041,呈山村沟戈,莆田市,福建省,1,福建省莆田市荔城区北高镇呈山村沟戈
78,竹庄村上房,119.199471,25.33625,竹庄村上房,莆田市,福建省,1,福建省莆田市荔城区北高镇竹庄村上房
79,,119.030777,25.3901,锦墩村,莆田市,福建省,1,福建省莆田市荔城区新度镇锦墩村
80,,119.171402,25.318489,渡岭村,莆田市,福建省,1,福建省莆田市荔城区渡岭村
81,万通花园,119.033401,25.438511,万通花园,莆田市,福建省,1,福建省莆田市荔城区万通花园
82,畅林社区浦头村,119.03154,25.46751,畅林社区浦头村,莆田市,福建省,1,福建省莆田市荔城区拱辰街道畅林社区浦头村
83,云顶枫丹,119.027328,25.480949,云顶枫丹,莆田市,福建省,1,福建省莆田市荔城区西天尾镇云顶枫丹
84,栏山村田鼻兜,119.181252,25.32865,栏山村田鼻兜,莆田市,福建省,1,福建省莆田市荔城区北高镇栏山村田鼻兜
85,东甲村青山,119.127739,25.393419,东甲村青山,莆田市,福建省,1,福建省莆田市荔城区黄石镇东甲村青山
86,,119.123352,25.38875,徐厝村,莆田市,福建省,1,福建省莆田市荔城区黄石镇徐厝村
87,万辉国际城,119.017303,25.46697,万辉国际城,莆田市,福建省,1,福建省莆田市城厢区万辉国际城
88,外贸宿舍,119.013527,25.424191,外贸宿舍,莆田市,福建省,1,福建省莆田市城厢区凤凰山街道南门吉祥街外贸宿舍
89,,118.884644,25.5361,金川村,莆田市,福建省,1,福建省莆田市城厢区常太镇金川村
90,,119.018372,25.306669,柯朱村,莆田市,福建省,1,福建省莆田市城厢区柯朱村
91,,119.035439,25.278299,太湖村,莆田市,福建省,1,福建省莆田市城厢区灵川镇太湖村
92,豪悦御景,119.003128,25.447611,豪悦御景,莆田市,福建省,1,福建省莆田市城厢区荔城中大道豪悦御景
93,,118.950058,25.276381,西黄村,莆田市,福建省,1,福建省莆田市城厢区东海镇西黄村
94,中国工商银行南安柳城分行,118.39328,24.95573,中国工商银行南安柳城分行,泉州市,福建省,1,福建省泉州市南安市中国工商银行南安柳城分行
95,南安市行政服务中心,118.40686,24.95915,南安市行政服务中心,泉州市,福建省,1,福建省泉州市南安市南安市行政服务中心
96,后林埔,118.478668,24.86297,后林埔,泉州市,福建省,1,福建省泉州市南安市官桥镇下洋村后林埔
97,,118.4244,24.767229,内厝村,泉州市,福建省,1,福建省泉州市南安市官桥镇内厝村
98,,118.418541,24.79817,周厝村,泉州市,福建省,1,福建省泉州市南安市官桥镇周厝村
99,,118.369072,24.692369,仁福村,泉州市,福建省,1,福建省泉州市南安市水头镇仁福村
100,,118.34716,24.69047,劳光村,泉州市,福建省,1,福建省泉州市南安市水头镇劳光村
101,,118.321281,25.2024,大庭村,泉州市,福建省,1,福建省泉州市南安市码头镇大庭村
102,,118.236717,24.9666,良山村,泉州市,福建省,1,福建省泉州市南安市英都镇良山村
103,,118.280746,25.015791,园美村,泉州市,福建省,1,福建省泉州市南安市仑苍镇园美村
104,,118.284332,25.005079,湖西新村,泉州市,福建省,1,福建省泉州市南安市仑苍镇湖西新村
105,,118.291061,25.007139,联盟村,泉州市,福建省,1,福建省泉州市南安市仑苍镇联盟村
106,水头菜市场桥西街,118.430664,24.708244,水头菜市场桥西街,泉州市,福建省,1,福建省泉州市南安市水头菜市场桥西街
107,溪口村,118.473648,24.99119,溪口村,泉州市,福建省,1,福建省泉州市南安市美林街道溪口村
108,西美村,118.393318,24.98402,西美村,泉州市,福建省,1,福建省泉州市南安市美林街道西美村
109,海景国际星域,118.624557,24.874359,海景国际星域,泉州市,福建省,1,福建省泉州市丰泽区东海街道海景社区海景国际星域
110,东莲花苑,118.649406,24.91396,东莲花苑,泉州市,福建省,1,福建省泉州市丰泽区城东街道浔美社区东莲花苑
111,,118.653152,24.75823,后垵村,泉州市,福建省,1,福建省泉州市石狮市宝盖镇后垵村
112,山前东区,118.700615,24.748087,山前东区,泉州市,福建省,1,福建省泉州市石狮市蚶江镇山前东区
113,,118.404404,25.301729,外碧村,泉州市,福建省,1,福建省泉州市永春县东关镇外碧村
114,,118.337349,25.303881,太平村,泉州市,福建省,1,福建省泉州市永春县东平镇太平村
115,,118.454689,25.324169,碧卿林场,泉州市,福建省,1,福建省泉州市永春县外山乡碧卿林场
116,,118.302193,25.32023,太坪新村,泉州市,福建省,1,福建省泉州市永春县桃城镇太坪新村
117,永春新华都超市,118.295059,25.324575,永春新华都超市,泉州市,福建省,1,福建省泉州市永春县永春新华都超市
118,,118.406357,25.36853,龙山村,泉州市,福建省,1,福建省泉州市永春县湖洋镇龙山村
119,金龙城董记咯摊,118.2967,25.323311,金龙城董记咯摊,泉州市,福建省,1,福建省泉州市永春县金龙城董记咯摊
120,,118.042648,25.36014,新珩村,泉州市,福建省,1,福建省泉州市永春县玉斗镇新珩村
121,,118.039238,25.390621,玉斗村,泉州市,福建省,1,福建省泉州市永春县玉斗镇玉斗村
122,,118.882057,24.905621,青山街,泉州市,福建省,1,福建省泉州市惠安县山霞镇东坑村青山街
123,,118.864159,24.90695,田边村,泉州市,福建省,1,福建省泉州市惠安县山霞镇田边村
124,,118.811958,24.983709,庄内村,泉州市,福建省,1,福建省泉州市惠安县涂寨镇庄内村
125,珑景湾小区,118.556358,24.93256,珑景湾小区,泉州市,福建省,1,福建省泉州市鲤城区浮桥街道延陵社区珑景湾小区
126,潘内村顶道坝,118.628922,25.13941,潘内村顶道坝,泉州市,福建省,1,福建省泉州市洛江区马甲镇潘内村顶道坝
127,杏坂社区,118.620865,24.78231,杏坂社区,泉州市,福建省,1,福建省泉州市晋江市新塘街道杏坂社区
128,沙塘社区,118.597733,24.785004,沙塘社区,泉州市,福建省,1,福建省泉州市晋江市新塘街道沙塘社区
129,,118.561378,24.59651,嘉排村,泉州市,福建省,1,福建省泉州市晋江市英林镇嘉排村
130,,118.573624,24.619471,西埔村,泉州市,福建省,1,福建省泉州市晋江市英林镇西埔村
131,泉安中路速8酒店,118.583412,24.809299,泉安中路速8酒店,泉州市,福建省,1,福建省泉州市晋江市梅岭街道泉安中路速8酒店
132,晋南小区,118.583138,24.632277,晋南小区,泉州市,福建省,1,福建省泉州市晋江市英林镇英林村晋南小区
133,万佳东方酒店,118.595688,24.567921,万佳东方酒店,泉州市,福建省,1,福建省泉州市晋江市金井镇万佳东方酒店
134,,118.459267,24.659781,山兜村,泉州市,福建省,1,福建省泉州市晋江市东石镇山兜村
135,,118.606918,24.81802,花厅口村,泉州市,福建省,1,福建省泉州市晋江市陈埭镇花厅口村
136,,118.161377,25.071381,仙苑村,泉州市,福建省,1,福建省泉州市安溪县城厢镇仙苑村
137,,117.962929,25.252769,中洋街,泉州市,福建省,1,福建省泉州市安溪县湖上乡雪山村中洋街
138,安溪清水岩,118.124275,25.122292,安溪清水岩,泉州市,福建省,1,福建省泉州市安溪县安溪清水岩
139,,118.074791,25.022949,恒美村,泉州市,福建省,1,福建省泉州市安溪县官桥镇恒美村
140,上江名都,117.651352,24.50251,上江名都,漳州市,福建省,1,福建省漳州市芗城区上江名都
141,丹霞商贸城,117.672203,24.507641,丹霞商贸城,漳州市,福建省,1,福建省漳州市芗城区丹霞商贸城
142,人民里25号,117.660774,24.507698,人民里25号,漳州市,福建省,1,福建省漳州市芗城区人民里25号
143,巷口社区后港,117.667877,24.509014,巷口社区后港,漳州市,福建省,1,福建省漳州市芗城区巷口社区后港
144,新浦路6号,117.66109,24.50541,新浦路6号,漳州市,福建省,1,福建省漳州市芗城区新浦路6号
145,永鸿国际城,117.623466,24.523855,永鸿国际城,漳州市,福建省,1,福建省漳州市芗城区永鸿国际城
146,福海阳光,117.674088,24.52096,福海阳光,漳州市,福建省,1,福建省漳州市芗城区福海阳光
147,,117.500793,23.73872,城安村,漳州市,福建省,1,福建省漳州市东山县康美镇城安村
148,明发广场,117.807411,24.43498,明发广场,漳州市,福建省,1,福建省漳州市龙海市石码镇明发广场
149,,117.093842,23.87608,楼仔村,漳州市,福建省,1,福建省漳州市诏安县红星乡楼仔村
150,,117.366737,24.06427,圆峰村,漳州市,福建省,1,福建省漳州市云霄县火田镇圆峰村
151,福锦中心广场,117.33654,23.93391,福锦中心广场,漳州市,福建省,1,福建省漳州市云霄县莆美镇福锦中心广场
152,,118.73912,26.53031,长岭村,宁德市,福建省,3,福建省宁德市古田县城西街道长岭村
153,,118.733963,26.541981,大洋坑村,宁德市,福建省,1,福建省宁德市古田县大洋坑村
154,康馨楼,118.723915,26.56883,康馨楼,宁德市,福建省,1,福建省宁德市城西街道康馨楼
155,,117.473022,26.7316,新将北路,三明市,福建省,1,福建省三明市将乐县古镛镇新将北路
156,,117.600983,26.126471,蓬坑村,三明市,福建省,2,福建省三明市三元区莘口镇蓬坑村
157,金色华府,117.363609,25.93548,金色华府,三明市,福建省,1,福建省三明市永安市燕南街道金色华府
158,,117.130142,25.733629,五一村,三明市,福建省,2,福建省永安市小陶镇五一村
159,,117.901787,26.144739,建设村,三明市,福建省,1,福建省三明市尤溪县管前镇建设村
160,鸿图花园,117.785217,26.395041,鸿图花园,三明市,福建省,1,福建省三明市沙县凤岗街道鸿图花园
161,龙湖天成,117.776833,26.413589,龙湖天成,三明市,福建省,1,福建省三明市沙县凤岗街道龙湖天成
162,,117.669502,26.57164,夏茂镇,三明市,福建省,1,福建省三明市沙县夏茂镇
163,,117.910713,26.42535,高砂村,三明市,福建省,2,福建省三明市沙县高砂镇高砂村
164,西街天翠阳光新城,116.123558,39.95443,西街天翠阳光新城,北京市,北京市,1,北京市石景山区五里坨街道西街天翠阳光新城
165,鲁谷远洋山水,116.23951,39.900459,鲁谷远洋山水,北京市,北京市,1,北京市石景山区八宝山街道鲁谷远洋山水
166,玉泉北里2区,116.248871,39.91946,玉泉北里2区,北京市,北京市,1,北京市石景山区玉泉北里2区
167,,116.801804,40.358109,河槽村,北京市,北京市,1,北京市密云区十里堡镇河槽村
168,东坝乡恒大江湾,116.531891,39.969803,东坝乡恒大江湾,北京市,北京市,1,北京市朝阳区东坝乡恒大江湾
169,北苑路86号嘉铭园,116.42212,40.00216,北苑路86号嘉铭园,北京市,北京市,1,北京市朝阳区北苑路86号嘉铭园
170,慈云寺北里,116.49498,39.917599,慈云寺北里,北京市,北京市,1,北京市朝阳区慈云寺北里
171,高碑店乡陶家湾,116.542572,39.9053,高碑店乡陶家湾,北京市,北京市,1,北京市朝阳区高碑店乡陶家湾
172,来广营乡筑华年,116.427711,40.036083,来广营乡筑华年,北京市,北京市,1,北京市朝阳区来广营乡筑华年
173,安慧北里,116.414322,39.995655,安慧北里,北京市,北京市,1,北京市朝阳区亚运村街道安慧北里
174,林萃路10号院,116.374276,40.010511,林萃路10号院,北京市,北京市,1,北京市朝阳区奥运村街道林萃路10号院
175,明天第一城,116.40921,40.046188,明天第一城,北京市,北京市,1,北京市朝阳区来广营乡明天第一城
176,将台乡芳园里小区,116.48835,39.974339,将台乡芳园里小区,北京市,北京市,1,北京市朝阳区将台乡芳园里小区
177,高碑店北花园社区超级蜂巢,116.548889,39.899143,高碑店北花园社区超级蜂巢,北京市,北京市,1,北京市朝阳区高碑店北花园社区超级蜂巢
178,南磨房乡世纪东方嘉园,116.4935,39.875549,南磨房乡世纪东方嘉园,北京市,北京市,1,北京市朝阳区南磨房乡世纪东方嘉园
179,金茂悦北区5号院,116.484139,39.754539,金茂悦北区5号院,北京市,北京市,1,北京市大兴区瀛海镇金茂悦北区5号院
180,双河南里,116.347168,39.734291,双河南里,北京市,北京市,1,北京市大兴区观音寺街道双河南里
181,格林云墅,116.401649,39.708168,格林云墅,北京市,北京市,1,北京市大兴区黄村镇格林云墅
182,瑞康家园小区,116.34198,39.7393,瑞康家园小区,北京市,北京市,1,北京市大兴区兴丰街道瑞康家园小区
183,泰禾中央广场,116.320198,39.713459,泰禾中央广场,北京市,北京市,1,北京市大兴区林校路街道泰禾中央广场
184,西红门镇瑞海家园二区,116.33179,39.78655,西红门镇瑞海家园二区,北京市,北京市,1,北京市大兴区西红门镇瑞海家园二区
185,格林云墅小区,116.401649,39.708168,格林云墅小区,北京市,北京市,1,北京市大兴区黄村镇格林云墅小区
186,润枫锦尚小区,116.428787,39.790588,润枫锦尚小区,北京市,北京市,1,北京市大兴区旧宫镇润枫锦尚小区
187,,116.616211,40.285912,郑重庄村,北京市,北京市,1,北京市怀柔区庙城镇郑重庄村
188,驹章胡同,116.425087,39.889252,驹章胡同,北京市,北京市,1,北京市东城区体育馆路街道驹章胡同
189,后永康2巷,116.424438,39.942402,后永康2巷,北京市,北京市,1,北京市东城区北新桥街道后永康2巷
190,东直门北小街8号,116.426272,39.947741,东直门北小街8号,北京市,北京市,1,北京市东城区北新桥街道东直门北小街8号
191,新中街18号,116.44003,39.93562,新中街18号,北京市,北京市,1,北京市东城区东直门街道新中街18号
192,龙湖滟澜山,116.50148,40.091801,龙湖滟澜山,北京市,北京市,1,北京市顺义区空港街道龙湖滟澜山
193,胜利街道义宾南区,116.646248,40.130978,胜利街道义宾南区,北京市,北京市,1,北京市顺义区胜利街道义宾南区
194,南营房社区,116.350113,39.918201,南营房社区,北京市,北京市,1,北京市西城区展览路街道南营房社区
195,复兴门外大街甲20号,116.33971,39.9064,复兴门外大街甲20号,北京市,北京市,1,北京市西城区月坛街道复兴门外大街甲20号
196,新街口街道富国里,116.365723,39.930149,新街口街道富国里,北京市,北京市,1,北京市西城区新街口街道富国里
197,三里河三区,116.339264,39.909752,三里河三区,北京市,北京市,1,北京市西城区月坛街道三里河三区
198,红居南街1号院,116.33934,39.8836,红居南街1号院,北京市,北京市,1,北京市西城区广安门外街道红居南街1号院
199,复兴门外大街20号,116.33991,39.90688,复兴门外大街20号,北京市,北京市,1,北京市西城区月坛街道复兴门外大街20号
200,莲花池东路甲5号院,116.33956,39.89841,莲花池东路甲5号院,北京市,北京市,1,北京市西城区月坛街道莲花池东路甲5号院
201,天通苑北一区,116.417297,40.076759,天通苑北一区,北京市,北京市,1,北京市昌平区天通苑北街道天通苑北一区
202,龙泽苑东区,116.326332,40.073669,龙泽苑东区,北京市,北京市,1,北京市昌平区龙泽园街道龙泽苑东区
203,长滩壹号,116.274963,40.197479,长滩壹号,北京市,北京市,1,北京市昌平区南邵镇长滩壹号
204,北亚花园社区,116.421494,40.129375,北亚花园社区,北京市,北京市,1,北京市昌平区北七家镇北亚花园社区
205,天通东苑二区,116.4394,40.06607,天通东苑二区,北京市,北京市,1,北京市昌平区天通苑南街道天通东苑二区
206,电报局街小区,116.286903,39.849232,电报局街小区,北京市,北京市,1,北京市丰台区丰台街道电报局街小区
207,西府颐园,116.267921,39.883171,西府颐园,北京市,北京市,1,北京市丰台区卢沟桥街道西府颐园
208,定安东里,116.414841,39.85947,定安东里,北京市,北京市,1,北京市丰台区东铁营街道定安东里
209,建国街一里,116.293396,39.847782,建国街一里,北京市,北京市,1,北京市丰台区丰台街道建国街一里
210,华源四里,116.317902,39.880962,华源四里,北京市,北京市,1,北京市丰台区太平桥街道华源四里
211,富丰园,116.282761,39.837036,富丰园,北京市,北京市,1,北京市丰台区新村街道富丰园
212,万源南里小区,116.418321,39.806941,万源南里小区,北京市,北京市,1,北京市丰台区东高地街道万源南里小区
213,刘孟家园小区,116.302071,39.838261,刘孟家园小区,北京市,北京市,1,北京市丰台区新村街道刘孟家园小区
214,幸福家园小区东区,116.310715,39.818203,幸福家园小区东区,北京市,北京市,1,北京市丰台区花乡街道幸福家园小区东区
215,刘孟家园小区,116.302071,39.838261,刘孟家园小区,北京市,北京市,1,北京市丰台区花乡地区刘孟家园小区
216,南庭新苑北区,116.36904,39.80689,南庭新苑北区,北京市,北京市,1,北京市丰台区南苑街道南庭新苑北区
217,家和园小区,116.360748,39.860336,家和园小区,北京市,北京市,1,北京市丰台区右安门街道家和园小区
218,西潞东里小区,116.135231,39.733238,西潞东里小区,北京市,北京市,1,北京市房山区西潞街道西潞东里小区
219,,115.736198,39.56778,西白岱村,北京市,北京市,1,北京市房山区张坊镇西白岱村
220,,116.7183,39.693851,崔各庄村,北京市,北京市,1,北京市通州区于家务回族乡崔各庄村
221,马驹桥镇北门口村,116.553642,39.766441,马驹桥镇北门口村,北京市,北京市,1,北京市通州区马驹桥镇北门口村
222,新街口外大街15号院,116.370025,39.963371,新街口外大街15号院,北京市,北京市,1,北京市海淀区北太平庄街道新街口外大街15号院
223,民族大学西路66号鑫德家园,116.3173,39.9495,民族大学西路66号鑫德家园,北京市,北京市,1,北京市海淀区紫竹院街道民族大学西路66号鑫德家园
224,中科院东南小区,116.323593,39.978989,中科院东南小区,北京市,北京市,1,北京市海淀区中关村街道中科院东南小区
225,北京师范大学小区,116.365944,39.960609,北京师范大学小区,北京市,北京市,1,北京市海淀区北太平庄街道北京师范大学小区
226,玉海园二里小区,116.253677,39.919514,玉海园二里小区,北京市,北京市,1,北京市海淀区田村路街道玉海园二里小区
227,知春路82号院小区,116.329456,39.974753,知春路82号院小区,北京市,北京市,1,北京市海淀区中关村街道知春路82号院小区
228,软件小区,116.335518,39.98159,软件小区,北京市,北京市,1,北京市海淀区中关村街道软件小区
229,堰塘村12组,108.241577,29.283127,堰塘村12组,重庆市,重庆市,2,重庆市彭水县岩东乡堰塘村12组
230,,107.089951,29.99736,张家堡,重庆市,重庆市,1,重庆市长寿区葛兰镇张家堡
231,,107.349274,29.91688,华福街36号,重庆市,重庆市,1,重庆市长寿区云集镇华福街36号
232,,107.347061,29.915291,华茂街,重庆市,重庆市,1,重庆市长寿区云集镇华茂街
233,,107.340446,29.93071,大胜村2组,重庆市,重庆市,1,重庆市长寿区云集镇大胜村2组
234,关口村1栋,107.084702,29.8218,关口村1栋,重庆市,重庆市,1,重庆市长寿区凤城街道关口村1栋
235,创业街1巷1栋,107.074051,29.834129,创业街1巷1栋,重庆市,重庆市,1,重庆市长寿区凤城街道创业街1巷1栋
236,枣子街692号,107.123543,30.035089,枣子街692号,重庆市,重庆市,1,重庆市长寿区葛兰镇枣子街692号
237,,107.151428,29.876011,庙山村1组,重庆市,重庆市,1,重庆市长寿区邻封镇庙山村1组
238,,107.240311,29.906071,曙光街,重庆市,重庆市,1,重庆市长寿区长寿湖镇曙光街
239,张家坝,107.089951,29.99736,张家坝,重庆市,重庆市,1,重庆市长寿区葛兰镇张家坝
240,船舶公司宿舍,107.730911,29.866831,船舶公司宿舍,重庆市,重庆市,1,重庆市丰都县三合街道船舶公司宿舍
241,,107.73658,29.86981,三合街道滨江东路二支路,重庆市,重庆市,1,重庆市丰都县三合街道滨江东路二支路
242,,107.730911,29.866831,三合街道东升路下段,重庆市,重庆市,1,重庆市丰都县三合街道东升路下段
243,,107.724998,29.85927,三合街道南天湖西路,重庆市,重庆市,1,重庆市丰都县三合街道南天湖西路
244,,107.730911,29.866831,三合街道雪玉路一支路,重庆市,重庆市,1,重庆市丰都县三合街道雪玉路一支路
245,世纪花园,107.730217,29.856791,世纪花园,重庆市,重庆市,1,重庆市丰都县三合街道雪玉路世纪花园
246,雪玉路金山佳园小区,107.739845,29.860954,雪玉路金山佳园小区,重庆市,重庆市,1,重庆市丰都县三合街道雪玉路金山佳园小区
247,春花山村三组,107.562752,30.044809,春花山村三组,重庆市,重庆市,1,重庆市丰都县兴龙镇春花山村三组
248,,107.708511,30.219919,文庙街,重庆市,重庆市,1,重庆市丰都县树人镇文庙街
249,,107.479919,29.33198,廖家嘴组,重庆市,重庆市,1,重庆市武隆区长坝镇何家村廖家嘴组
250,,107.565826,29.825029,红碑村,重庆市,重庆市,1,重庆市涪陵区南沱镇红碑村
251,,107.317879,29.590931,均田村,重庆市,重庆市,1,重庆市涪陵区马武镇均田村
252,万科悦峰三期,106.539655,29.643136,万科悦峰三期,重庆市,重庆市,1,重庆市两江新区人和街道万科悦峰三期
253,华夏城,106.536629,29.619196,华夏城,重庆市,重庆市,1,重庆市两江新区人和街道华夏城
254,爱琴庄园,106.543655,29.637007,爱琴庄园,重庆市,重庆市,1,重庆市两江新区人和街道爱琴庄园
255,龙寿路1028号,106.53787,29.62561,龙寿路1028号,重庆市,重庆市,1,重庆市两江新区人和街道龙寿路1028号
256,万科缇香郡,106.522385,29.620319,万科缇香郡,重庆市,重庆市,1,重庆市两江新区大竹林街道万科缇香郡
257,亚热带雅苑,106.557007,29.60383,亚热带雅苑,重庆市,重庆市,1,重庆市两江新区天宫殿街道亚热带雅苑
258,力帆枫樾,106.542183,29.59997,力帆枫樾,重庆市,重庆市,1,重庆市两江新区天宫殿街道力帆枫樾
259,动力国际B座,106.55383,29.60375,动力国际B座,重庆市,重庆市,1,重庆市两江新区天宫殿街道动力国际B座
260,荣鼎国际,106.519318,29.61031,荣鼎国际,重庆市,重庆市,1,重庆市两江新区天宫殿街道荣鼎国际
261,奥林匹克花园7期,105.884872,29.66223,奥林匹克花园7期,重庆市,重庆市,1,重庆市两江新区金山街道奥林匹克花园7期
262,叠彩城,105.884872,29.66223,叠彩城,重庆市,重庆市,1,重庆市两江新区金山街道叠彩城
263,城南家园五组团,106.653862,29.515779,城南家园五组团,重庆市,重庆市,1,重庆市南岸区天文街道城南家园五组团
264,聚丰江山里小区,106.589981,29.542801,聚丰江山里小区,重庆市,重庆市,1,重庆市南岸区海棠街道聚丰江山里小区
265,富翔花园,106.668037,29.506781,富翔花园,重庆市,重庆市,3,重庆市南岸区长生桥镇富翔花园
266,天水伴山居,106.598122,29.54747,天水伴山居,重庆市,重庆市,3,重庆市南岸区龙门浩街道天水伴山居
267,恒景天苑小区,106.437431,29.452379,恒景天苑小区,重庆市,重庆市,6,重庆市九龙坡区华岩镇恒景天苑小区
268,万科西城,106.49675,29.507769,万科西城,重庆市,重庆市,1,重庆市九龙坡区九龙镇万科西城
269,朵力名都,106.483437,29.494261,朵力名都,重庆市,重庆市,1,重庆市九龙坡区九龙镇朵力名都
270,云湖绿岛,106.48983,29.50692,云湖绿岛,重庆市,重庆市,1,重庆市九龙坡区二郎街道云湖绿岛
271,同心家园,106.46875,29.515497,同心家园,重庆市,重庆市,1,重庆市九龙坡区二郎街道同心家园
272,晋愉V时代,106.4585,29.506232,晋愉V时代,重庆市,重庆市,1,重庆市九龙坡区二郎街道晋愉V时代
273,华宇锦绣花城,106.443329,29.435181,华宇锦绣花城,重庆市,重庆市,1,重庆市九龙坡区华岩镇华宇锦绣花城
274,恒大雅苑,106.447304,29.4387,恒大雅苑,重庆市,重庆市,1,重庆市九龙坡区华岩镇恒大雅苑
275,田坝乔鹤佳苑,106.43528,29.46175,田坝乔鹤佳苑,重庆市,重庆市,1,重庆市九龙坡区华岩镇田坝乔鹤佳苑
276,喜盈门食府,106.485481,29.5296,喜盈门食府,重庆市,重庆市,1,重庆市九龙坡区渝州路街道科园一路喜盈门食府
277,隆鑫花漾四季,106.462784,29.524111,隆鑫花漾四季,重庆市,重庆市,1,重庆市九龙坡区石桥铺街道隆鑫花漾四季
278,雨林商都,106.482079,29.529711,雨林商都,重庆市,重庆市,1,重庆市九龙坡区石桥铺街道雨林商都
279,,106.488747,29.520451,石桥铺街道,重庆市,重庆市,1,重庆市九龙坡区陈家坪石杨村石桥铺街道
280,华龙家园,106.44458,29.46442,华龙家园,重庆市,重庆市,1,重庆市九龙坡区中梁山街道华龙家园
281,健能绿都,105.829979,30.15152,健能绿都,重庆市,重庆市,1,重庆市潼南区梓潼街道健能绿都
282,华夏天宇,105.832703,30.168591,华夏天宇,重庆市,重庆市,1,重庆市潼南区梓潼街道华夏天宇
283,,105.970261,30.31374,狮桥村,重庆市,重庆市,1,重庆市潼南区古溪镇狮桥村
284,迎仙二环路望江大楼,108.431061,31.205494,迎仙二环路望江大楼,重庆市,重庆市,1,重庆市开州区丰乐街道迎仙二环路望江大楼
285,云枫苑,108.373558,31.16515,云枫苑,重庆市,重庆市,1,重庆市开州区云枫街道云枫苑
286,,108.230278,31.09186,复兴街,重庆市,重庆市,1,重庆市开州区厚坝镇复兴街
287,青坪村,108.515579,31.23867,青坪村,重庆市,重庆市,1,重庆市开州区厚坝镇青坪村
288,,108.169228,30.911036,邮政街,重庆市,重庆市,1,重庆市开州区岳溪镇邮政街
289,中吉社区,108.427513,31.174038,中吉社区,重庆市,重庆市,1,重庆市开州区文峰街道中吉社区
290,侨城半岛,108.417229,31.176451,侨城半岛,重庆市,重庆市,1,重庆市开州区文峰街道侨城半岛
291,吉祥佳苑,108.431152,31.174953,吉祥佳苑,重庆市,重庆市,1,重庆市开州区文峰街道吉祥佳苑
292,金科天湖印,108.43396,31.181351,金科天湖印,重庆市,重庆市,1,重庆市开州区文峰街道金科天湖印
293,中央国际二组团,108.403122,31.172907,中央国际二组团,重庆市,重庆市,1,重庆市开州区汉丰街道中央国际二组团
294,盛山社区北环路,108.411629,31.189358,盛山社区北环路,重庆市,重庆市,1,重庆市开州区汉丰街道盛山社区北环路
295,登云村,108.52224,31.25742,登云村,重庆市,重庆市,1,重庆市开州区白鹤街道登云村
296,凤翔街食品站,108.428001,31.085649,凤翔街食品站,重庆市,重庆市,1,重庆市开州区赵家街道凤翔街食品站
297,茶竹村,108.416351,31.009581,茶竹村,重庆市,重庆市,1,重庆市开州区赵家街道茶竹村
298,裕华街,108.427208,31.087099,裕华街,重庆市,重庆市,1,重庆市开州区赵家街道裕华街
299,银桥社区南湖街,108.126701,31.03603,银桥社区南湖街,重庆市,重庆市,1,重庆市开州区铁桥镇银桥社区南湖街
300,中海北滨一号天赋花园小区,106.490486,29.561108,中海北滨一号天赋花园小区,重庆市,重庆市,1,重庆市江北区中海北滨一号天赋花园小区
301,光华龙都小区,106.562988,29.57918,光华龙都小区,重庆市,重庆市,1,重庆市江北区五江路光华龙都小区
302,南桥寺聚慧雅苑小区,106.478394,29.58902,南桥寺聚慧雅苑小区,重庆市,重庆市,1,重庆市江北区健安路南桥寺聚慧雅苑小区
303,鹏润蓝海C区,106.527,29.56199,鹏润蓝海C区,重庆市,重庆市,1,重庆市江北区兴竹路鹏润蓝海C区
304,融景城丽苑小区,106.556725,29.573503,融景城丽苑小区,重庆市,重庆市,1,重庆市江北区北城3路融景城丽苑小区
305,招商江湾城小区,106.535988,29.560915,招商江湾城小区,重庆市,重庆市,2,重庆市江北区北滨一路招商江湾城小区
306,农场国奥村3期,106.457253,29.593002,农场国奥村3期,重庆市,重庆市,1,重庆市江北区国惠路农场国奥村3期
307,下石门253号,106.484657,29.565229,下石门253号,重庆市,重庆市,2,重庆市江北区大石坝街道下石门253号
308,鲁能星城小区八街区,106.565079,29.596889,鲁能星城小区八街区,重庆市,重庆市,2,重庆市江北区海尔路鲁能星城小区八街区
309,龙湖枫香庭小区,106.535439,29.578659,龙湖枫香庭小区,重庆市,重庆市,3,重庆市江北区渝北三村龙湖枫香庭小区
310,南桥寺维丰南桥小区,106.483818,29.588711,南桥寺维丰南桥小区,重庆市,重庆市,1,重庆市江北区盘溪路南桥寺维丰南桥小区
311,红土地100号,106.555946,29.581129,红土地100号,重庆市,重庆市,1,重庆市江北区红土地100号
312,桥北社区261号,106.528961,29.564329,桥北社区261号,重庆市,重庆市,1,重庆市江北区华新街桥北社区261号
313,银泰新苑小区,106.53862,29.575293,银泰新苑小区,重庆市,重庆市,1,重庆市江北区建新东路银泰新苑小区
314,怡和花苑,105.591148,29.406219,怡和花苑,重庆市,重庆市,1,重庆市荣昌区昌元街道怡和花苑
315,天常村11组,105.533623,29.343241,天常村11组,重庆市,重庆市,1,重庆市荣昌区广顺街道天常村11组
316,海棠路265号,105.60007,29.40798,海棠路265号,重庆市,重庆市,1,重庆市荣昌区昌元街道海棠路265号
317,玉屏二街24号,105.596247,29.405259,玉屏二街24号,重庆市,重庆市,1,重庆市荣昌区昌元街道玉屏二街24号
318,古佛山社区2组,105.527847,29.298161,古佛山社区2组,重庆市,重庆市,1,重庆市荣昌区清升镇古佛山社区2组
319,新升南溪园小区,106.44381,29.62447,新升南溪园小区,重庆市,重庆市,2,重庆市沙坪坝区井口街道新升南溪园小区
320,金科天宸,106.364708,29.617157,金科天宸,重庆市,重庆市,1,重庆市沙坪坝区陈家桥街道金科天宸
321,龙湖好城时光小区,106.366302,29.610971,龙湖好城时光小区,重庆市,重庆市,3,重庆市沙坪坝区陈家桥街道龙湖好城时光小区
322,学府悦园公租房小区D区,106.580086,29.621519,学府悦园公租房小区D区,重庆市,重庆市,6,重庆市江北区丰文街道学府悦园公租房小区D区
323,,109.458832,31.323259,上磺,重庆市,重庆市,1,重庆市巫溪县上磺
324,,109.57016,31.3986,土城,重庆市,重庆市,4,重庆市巫溪县土城
325,,109.630348,31.39773,宁河街道,重庆市,重庆市,5,重庆市巫溪县宁河街道
326,,109.57016,31.3986,文峰,重庆市,重庆市,1,重庆市巫溪县文峰
327,西坪村4组,109.184029,31.64216,西坪村4组,重庆市,重庆市,1,重庆市巫溪县土城镇西坪村4组
328,北湖路119号,106.62191,29.7106,北湖路119号,重庆市,重庆市,1,重庆市渝北区双龙湖街道北湖路119号
329,复地花屿城C区,106.615685,29.67472,复地花屿城C区,重庆市,重庆市,1,重庆市渝北区回兴街道复地花屿城C区
330,荣升锦瑟华年小区,106.546242,29.58703,荣升锦瑟华年小区,重庆市,重庆市,1,重庆市渝北区龙塔街道兴盛大道荣升锦瑟华年小区
331,兴馨嘉园小区,106.559372,29.601231,兴馨嘉园小区,重庆市,重庆市,1,重庆市渝北区龙塔街道渝鲁大道兴馨嘉园小区
332,黄泥塝金玉满堂小区,106.536308,29.59355,黄泥塝金玉满堂小区,重庆市,重庆市,1,重庆市渝北区龙塔街道黄泥塝金玉满堂小区
333,黄泥磅佳华世纪新城A区,106.53172,29.58857,黄泥磅佳华世纪新城A区,重庆市,重庆市,1,重庆市渝北区龙塔街道黄泥磅佳华世纪新城A区
334,安泰佳苑小区,106.494781,29.58433,安泰佳苑小区,重庆市,重庆市,1,重庆市渝北区龙山街道安泰佳苑小区
335,龙湖紫都城小区,106.496033,29.586849,龙湖紫都城小区,重庆市,重庆市,1,重庆市渝北区龙山街道龙湖紫都城小区
336,石油小区,106.535904,29.620743,石油小区,重庆市,重庆市,1,重庆市渝北区龙山街道龙脊路石油小区
337,拿铁城小区,106.515266,29.59226,拿铁城小区,重庆市,重庆市,1,重庆市渝北区龙溪街道松牌路拿铁城小区
338,金龙路268号,106.51926,29.59045,金龙路268号,重庆市,重庆市,1,重庆市渝北区龙溪街道金龙路268号
339,虎啸村,106.599564,29.41205,虎啸村,重庆市,重庆市,1,重庆市巴南区南泉街道虎啸村
340,碧海湾小区,106.542931,29.401609,碧海湾小区,重庆市,重庆市,2,重庆市巴南区龙洲湾街道碧海湾小区
341,,106.150337,29.405769,丁家街道,重庆市,重庆市,2,重庆市璧山区丁家街道
342,,106.285843,29.778259,七塘镇,重庆市,重庆市,2,重庆市璧山区七塘镇
343,,106.223686,29.5931,璧城街道,重庆市,重庆市,3,重庆市璧山区璧城街道
344,茅店社区,105.771065,29.519241,茅店社区,重庆市,重庆市,1,重庆市大足区通桥街道茅店社区
345,金地阳光小区,105.743042,29.427759,金地阳光小区,重庆市,重庆市,1,重庆市大足区邮亭镇金地阳光小区
346,,105.752213,29.390169,新利村,重庆市,重庆市,6,重庆市大足区邮亭镇新利村
347,绿地海棠湾小区,105.749191,29.678976,绿地海棠湾小区,重庆市,重庆市,1,重庆市大足区绿地海棠湾小区
348,金域都会,105.78183,29.495758,金域都会,重庆市,重庆市,2,重庆市大足区通桥街道金域都会
349,,108.356613,30.817591,太白街道,重庆市,重庆市,1,重庆市万州区太白街道
350,,108.388512,30.823549,钟鼓楼街道,重庆市,重庆市,1,重庆市万州区钟鼓楼街道
351,,108.04406,30.64608,大兴村,重庆市,重庆市,2,重庆市万州区分水镇大兴村
352,红豆村3组,108.087082,30.659531,红豆村3组,重庆市,重庆市,1,重庆市万州区分水镇红豆村3组
353,天仙湖棕榈长滩,108.353378,30.821289,天仙湖棕榈长滩,重庆市,重庆市,1,重庆市万州区北滨大道二段天仙湖棕榈长滩
354,,108.380463,30.814831,复兴路,重庆市,重庆市,1,重庆市万州区复兴路
355,万河村1组,108.36763,30.88283,万河村1组,重庆市,重庆市,1,重庆市万州区天城镇万河村1组
356,太白村,108.356613,30.817591,太白村,重庆市,重庆市,1,重庆市万州区太白街道太白村
357,,108.369972,30.811741,太白街道桂花路,重庆市,重庆市,2,重庆市万州区太白街道桂花路
358,御景江城12号楼,108.387489,30.786779,御景江城12号楼,重庆市,重庆市,1,重庆市万州区牌楼街道御景江城12号楼
359,,108.61319,30.814751,三湾路,重庆市,重庆市,1,重庆市万州区白羊镇三湾路
360,,108.61671,30.81342,源河路,重庆市,重庆市,1,重庆市万州区白羊镇源河路
361,北滨华府,108.397049,30.82379,北滨华府,重庆市,重庆市,1,重庆市万州区钟鼓楼街道北滨三段北滨华府
362,山水国际小区1号楼,108.388512,30.823549,山水国际小区1号楼,重庆市,重庆市,1,重庆市万州区钟鼓楼街道山水国际小区1号楼
363,枇杷坪金顺景苑,108.411491,30.835133,枇杷坪金顺景苑,重庆市,重庆市,1,重庆市万州区钟鼓楼街道枇杷坪金顺景苑
364,,108.400002,30.98555,箭楼村,重庆市,重庆市,1,重庆市万州区铁峰乡箭楼村
365,,108.599823,30.703699,白岩村,重庆市,重庆市,1,重庆市万州区长滩镇白岩村
366,南山绿庭26栋,108.413483,30.80209,南山绿庭26栋,重庆市,重庆市,1,重庆市万州区陈家坝街道南山绿庭26栋
367,春天花园,108.374992,30.79928,春天花园,重庆市,重庆市,1,重庆市万州区高笋塘街道春天花园
368,,108.086853,30.717699,黄泥凼村,重庆市,重庆市,1,重庆市万州区分水镇黄泥凼村
369,富康花园,108.37336,30.75617,富康花园,重庆市,重庆市,1,重庆市万州区双河口街道富康花园
370,富康苑,108.372391,30.845301,富康苑,重庆市,重庆市,1,重庆市万州区周家坝街道富康苑
371,滨湖花园小区,108.367638,30.82155,滨湖花园小区,重庆市,重庆市,1,重庆市万州区周家坝街道滨湖花园小区
372,,108.367432,30.851721,周家坝街道申明大道,重庆市,重庆市,4,重庆市万州区周家坝街道申明大道
373,,108.208908,30.666719,总角村,重庆市,重庆市,1,重庆市万州区响水镇总角村
374,,108.37336,30.86861,天雄路,重庆市,重庆市,2,重庆市万州区天城镇天雄路
375,发顺金都,108.371719,30.815161,发顺金都,重庆市,重庆市,4,重庆市万州区太白街道发顺金都
376,后街金座小区,108.373375,30.815042,后街金座小区,重庆市,重庆市,1,重庆市万州区太白街道后街金座小区
377,天仙湖棕榈长滩小区,108.353378,30.821289,天仙湖棕榈长滩小区,重庆市,重庆市,1,重庆市万州区太白街道天仙湖棕榈长滩小区
378,水晶郦城小区,108.359444,30.81662,水晶郦城小区,重庆市,重庆市,1,重庆市万州区太白街道水晶郦城小区
379,油房坝社区,108.202507,30.790346,油房坝社区,重庆市,重庆市,1,重庆市万州区李河镇油房坝社区
380,,108.263451,30.51857,下中村,重庆市,重庆市,1,重庆市万州区武陵镇下中村
381,,108.254578,30.500799,将军路,重庆市,重庆市,2,重庆市万州区武陵镇将军路
382,贵方小区,108.433647,30.905331,贵方小区,重庆市,重庆市,1,重庆市万州区熊家镇贵方小区
383,天然气公司宿舍小区,108.39209,30.7833,天然气公司宿舍小区,重庆市,重庆市,1,重庆市万州区牌楼街道天然气公司宿舍小区
384,,108.371086,30.797977,牌楼街道清明路,重庆市,重庆市,3,重庆市万州区牌楼街道清明路
385,金泉阳光花园小区,108.395088,30.7745,金泉阳光花园小区,重庆市,重庆市,1,重庆市万州区牌楼街道金泉阳光花园小区
386,,108.323021,30.638929,围灯村,重庆市,重庆市,1,重庆市万州区甘宁镇围灯村
387,,108.443169,30.767717,百安坝街道万川大道,重庆市,重庆市,1,重庆市万州区百安坝街道万川大道
388,,108.44529,30.76375,百安坝街道上海大道,重庆市,重庆市,1,重庆市万州区百安坝街道上海大道
389,,108.441803,30.75919,百安坝街道安庆路,重庆市,重庆市,2,重庆市万州区百安坝街道安庆路
390,北山鸡冠梁一巷,108.388512,30.823549,北山鸡冠梁一巷,重庆市,重庆市,1,重庆市万州区钟鼓楼街道北山鸡冠梁一巷
391,桑树坪社区,108.388512,30.823549,桑树坪社区,重庆市,重庆市,1,重庆市万州区钟鼓楼街道桑树坪社区
392,棉花地外贸车队2栋,108.388512,30.823549,棉花地外贸车队2栋,重庆市,重庆市,1,重庆市万州区钟鼓楼街道棉花地外贸车队2栋
393,海洋馆,108.390045,30.825481,海洋馆,重庆市,重庆市,1,重庆市万州区钟鼓楼街道海洋馆
394,清江上城,108.387497,30.81922,清江上城,重庆市,重庆市,1,重庆市万州区钟鼓楼街道清江上城
395,陶家坪,108.388512,30.823549,陶家坪,重庆市,重庆市,8,重庆市万州区钟鼓楼街道陶家坪
396,,108.2603,30.410049,大树村,重庆市,重庆市,1,重庆市万州区长坪乡大树村
397,,108.295609,30.441179,弹子村,重庆市,重庆市,1,重庆市万州区长坪乡弹子村
398,长坪乡长坪社区,108.253365,30.439829,长坪乡长坪社区,重庆市,重庆市,2,重庆市万州区长坪乡长坪乡长坪社区
399,,108.60968,30.73778,羊渠街,重庆市,重庆市,1,重庆市万州区长滩镇羊渠街
400,中恒江南第一城,108.408852,30.812969,中恒江南第一城,重庆市,重庆市,1,重庆市万州区陈家坝街道中恒江南第一城
401,,108.407043,30.80468,陈家坝街道江南大道,重庆市,重庆市,4,重庆市万州区陈家坝街道江南大道
402,白岩书院,108.377014,30.807077,白岩书院,重庆市,重庆市,3,重庆市万州区高笋塘街道白岩书院
403,汇景苑小区,108.41153,30.762991,汇景苑小区,重庆市,重庆市,1,重庆市万州区龙都街道汇景苑小区
404,文化站,108.433647,30.905331,文化站,重庆市,重庆市,1,重庆市万州区熊家镇文化站
405,,108.417542,30.89583,白水村,重庆市,重庆市,1,重庆市万州区熊家镇白水村
406,,108.827789,30.592819,五龙村,重庆市,重庆市,1,重庆市万州区白土镇五龙村
407,,108.610092,30.81373,三湾东路,重庆市,重庆市,1,重庆市万州区白羊镇三湾东路
408,,108.615059,30.81378,春华路,重庆市,重庆市,1,重庆市万州区白羊镇春华路
409,青羊宫,108.373917,30.810038,青羊宫,重庆市,重庆市,1,重庆市万州区高笋街道青羊宫
410,,108.360756,30.808247,太白街道,重庆市,重庆市,1,重庆市万州区太白村太白街道
411,御景江城,108.387489,30.786779,御景江城,重庆市,重庆市,1,重庆市万州区牌楼街道御景江城
412,江山龙苑,108.389915,30.786573,江山龙苑,重庆市,重庆市,1,重庆市万州区牌楼街道江山龙苑
413,金泉阳光花园,108.394592,30.77236,金泉阳光花园,重庆市,重庆市,2,重庆市万州区牌楼街道金泉阳光花园
414,山水国际小区,108.388512,30.823549,山水国际小区,重庆市,重庆市,1,重庆市万州区钟鼓楼街道山水国际小区
415,西山公寓,108.376152,30.812321,西山公寓,重庆市,重庆市,1,重庆市万州区高笋塘果园路西山公寓
416,,108.38195,30.80443,高笋塘街道太白路,重庆市,重庆市,1,重庆市万州区高笋塘街道太白路
417,西山公寓,108.384689,30.805349,西山公寓,重庆市,重庆市,1,重庆市万州区高笋塘街道果园路西山公寓
418,财贸广场,108.381454,30.804331,财贸广场,重庆市,重庆市,1,重庆市万州区高笋塘街道财贸广场
419,,108.740593,31.372561,龙泉北路,重庆市,重庆市,2,重庆市云阳区农坝镇龙堰社区龙泉北路
420,丽城小区,108.820259,31.11491,丽城小区,重庆市,重庆市,1,重庆市云阳区南溪镇丽城小区
421,,108.931923,31.1036,塔棚村,重庆市,重庆市,1,重庆市云阳区南溪镇塔棚村
422,,108.820259,31.11491,新云村,重庆市,重庆市,2,重庆市云阳区南溪镇新云村
423,梨园社区,108.720016,30.938499,梨园社区,重庆市,重庆市,2,重庆市云阳区双江街道云江大道梨园社区
424,,108.703949,30.940199,双江街道北部新区桂湾路,重庆市,重庆市,1,重庆市云阳区双江街道北部新区桂湾路
425,,108.908859,30.934641,凤凰村,重庆市,重庆市,1,重庆市云阳区宝坪镇凤凰村
426,,108.911911,30.913521,双坝村,重庆市,重庆市,1,重庆市云阳区宝坪镇双坝村
427,,108.89135,30.94154,江南村,重庆市,重庆市,1,重庆市云阳区宝坪镇江南村
428,,108.994072,30.91729,作坊村,重庆市,重庆市,1,重庆市云阳区新津乡作坊村
429,,108.879372,30.857719,佛手村,重庆市,重庆市,1,重庆市云阳区普安乡佛手村
430,,108.769119,31.00345,宫观路,重庆市,重庆市,1,重庆市云阳区水口镇宫观路
431,,108.796738,31.22205,和平社区,重庆市,重庆市,1,重庆市云阳区江口镇和平社区
432,,108.796738,31.22205,帆水社区,重庆市,重庆市,1,重庆市云阳区江口镇帆水社区
433,,108.799545,31.218493,滨河社区,重庆市,重庆市,3,重庆市云阳区江口镇滨河社区
434,,108.71759,30.90415,永兴路,重庆市,重庆市,1,重庆市云阳区盘龙街道永兴路
435,,108.719101,30.925852,五同路,重庆市,重庆市,2,重庆市云阳区青龙街道白鹤社区五同路
436,,108.695107,31.12184,桂林村,重庆市,重庆市,1,重庆市云阳区高阳镇桂林村
437,,108.681328,31.095619,青乐路,重庆市,重庆市,1,重庆市云阳区高阳镇荣华社区青乐路
438,,108.722069,30.998119,兴旺路,重庆市,重庆市,1,重庆市云阳区黄石镇兴旺路
439,,108.871368,30.80374,木虎村,重庆市,重庆市,1,重庆市云阳区龙角镇木虎村
440,,110.011368,30.942141,桃花街,重庆市,重庆市,2,重庆市巫山县抱龙镇桃花街
441,,110.129623,31.18469,玉水村,重庆市,重庆市,2,重庆市巫山县骡坪镇玉水村
442,中央王府2号楼,109.87793,31.08231,中央王府2号楼,重庆市,重庆市,2,重庆市巫山县高唐街道中央王府2号楼
443,平湖路394号,109.892883,31.08699,平湖路394号,重庆市,重庆市,1,重庆市巫山县高唐街道平湖路394号
444,柳坪村5组,109.956467,31.04871,柳坪村5组,重庆市,重庆市,1,重庆市巫山县建平乡柳坪村5组
445,,110.011162,30.942125,莲花街,重庆市,重庆市,1,重庆市巫山县抱龙镇莲花街
446,前进村4组,108.487518,32.021271,前进村4组,重庆市,重庆市,1,重庆市城口县坪坝镇前进村4组
447,红岩村4组,108.400757,32.057892,红岩村4组,重庆市,重庆市,1,重庆市城口县沿河乡红岩村4组
448,半岛明珠,106.277679,29.280676,半岛明珠,重庆市,重庆市,1,重庆市江津区半岛明珠
449,柏树村3组,107.508614,30.571341,柏树村3组,重庆市,重庆市,1,重庆市梁平区屏锦镇柏树村3组
450,石马山南一段,107.802498,30.67251,石马山南一段,重庆市,重庆市,1,重庆市梁平区梁山街道石马山南一段
451,明珠上海城,107.76828,30.64889,明珠上海城,重庆市,重庆市,1,重庆市梁平区双桂街道明珠上海城
452,新中街30号,107.779625,30.8115,新中街30号,重庆市,重庆市,1,重庆市梁平区文化镇新中街30号
453,义和村3组,107.828728,30.609489,义和村3组,重庆市,重庆市,1,重庆市梁平区蟠龙镇义和村3组
454,聚水村7组,107.846703,30.61414,聚水村7组,重庆市,重庆市,1,重庆市梁平区蟠龙镇聚水村7组
455,城南花园,108.109528,29.984541,城南花园,重庆市,重庆市,1,重庆市石柱县万安街道城南花园
456,汇景龙湾,108.139206,29.996185,汇景龙湾,重庆市,重庆市,1,重庆市石柱县南宾街道汇景龙湾
457,,108.20697,30.39971,云南路,重庆市,重庆市,1,重庆市石柱县西沱镇云南路
458,,108.214401,30.39929,双桥居委双桥组,重庆市,重庆市,3,重庆市石柱县西沱镇双桥居委双桥组
459,罗家湾,108.214401,30.39929,罗家湾,重庆市,重庆市,2,重庆市石柱县西沱镇双桥居委罗家湾
460,,108.214401,30.39929,商业街,重庆市,重庆市,2,重庆市石柱县西沱镇商业街
461,,108.210953,30.399389,月台南路,重庆市,重庆市,1,重庆市石柱县西沱镇月台南路
462,,108.216637,30.39485,玉石村大墙院组,重庆市,重庆市,1,重庆市石柱县西沱镇玉石村大墙院组
463,财信城,108.100906,29.972139,财信城,重庆市,重庆市,1,重庆市石柱县万安街道财信城
464,七星岗街道领事岗,106.567047,29.552778,七星岗街道领事岗,重庆市,重庆市,1,重庆市渝中区七星岗街道领事岗
465,上清寺街道交通巷,106.54805,29.559835,上清寺街道交通巷,重庆市,重庆市,1,重庆市渝中区上清寺街道交通巷
466,学田湾正街,106.550209,29.55929,学田湾正街,重庆市,重庆市,1,重庆市渝中区上清街道学田湾正街
467,嘉韵山水城,106.524139,29.549259,嘉韵山水城,重庆市,重庆市,1,重庆市渝中区化龙桥街道嘉韵山水城
468,和泓江山国际,106.527588,29.541361,和泓江山国际,重庆市,重庆市,1,重庆市渝中区大坪街道和泓江山国际
469,龙泉花园,106.553574,29.56517,龙泉花园,重庆市,重庆市,1,重庆市渝中区大溪沟街道龙泉花园
470,恒大名都,106.506302,29.542244,恒大名都,重庆市,重庆市,1,重庆市渝中区石油路街道恒大名都
471,民新花园,106.528023,29.53619,民新花园,重庆市,重庆市,1,重庆市渝中区菜园坝街道民新花园
472,江屿朗廷,106.52816,29.537039,江屿朗廷,重庆市,重庆市,1,重庆市渝中区菜园坝街道江屿朗廷
473,蔡家石堡7号,106.568832,29.55163,蔡家石堡7号,重庆市,重庆市,1,重庆市渝中区南纪门街道蔡家石堡7号
474,,108.64534,28.777281,清泉村,重庆市,重庆市,1,重庆市酉阳县铜鼓镇清泉村
475,宝塔坪陈家包11栋,109.205322,31.15538,宝塔坪陈家包11栋,重庆市,重庆市,2,重庆市奉节县夔门街道宝塔坪陈家包11栋
476,凤仙村4组,109.384262,31.185459,凤仙村4组,重庆市,重庆市,1,重庆市奉节县大树镇凤仙村4组
477,广营村9组,109.344208,30.89978,广营村9组,重庆市,重庆市,1,重庆市奉节县安坪镇广营村9组
478,金橙街58号,109.463219,31.012981,金橙街58号,重庆市,重庆市,1,重庆市奉节县永安街道金橙街58号
479,飞洋世纪城,109.415771,31.024679,飞洋世纪城,重庆市,重庆市,3,重庆市奉节县西部新区飞洋世纪城
480,下坝村1组,109.309349,30.91222,下坝村1组,重庆市,重庆市,3,重庆市奉节县安坪镇下坝村1组
481,合一村1组,109.287437,30.90587,合一村1组,重庆市,重庆市,1,重庆市奉节县安坪镇合一村1组
482,,107.874199,30.13657,任家村,重庆市,重庆市,1,重庆市忠县任家镇任家村
483,忠州街道公安局宿舍楼,108.041893,30.29315,忠州街道公安局宿舍楼,重庆市,重庆市,1,重庆市忠县忠州街道公安局宿舍楼
484,拔山镇政府隔壁居民楼,107.730118,30.307171,拔山镇政府隔壁居民楼,重庆市,重庆市,1,重庆市忠县拔山镇政府隔壁居民楼
485,鼎都花园小区,108.197098,30.421181,鼎都花园小区,重庆市,重庆市,1,重庆市忠县石宝镇石宝街鼎都花园小区
486,,108.203728,30.496429,云山村,重庆市,重庆市,1,重庆市忠县石宝镇云山村
487,大梁街9号,108.193875,30.420786,大梁街9号,重庆市,重庆市,1,重庆市忠县石宝镇大梁街9号
488,龙都路400号,106.0478,29.83993,龙都路400号,重庆市,重庆市,1,重庆市铜梁区南城街道龙都路400号
489,沙心村19组,106.162682,29.855579,沙心村19组,重庆市,重庆市,3,重庆市铜梁区吕街道沙心村19组
490,,106.074173,29.640224,长安街,重庆市,重庆市,1,重庆市铜梁区大庙镇长安街
491,中南路55号,106.05976,29.84289,中南路55号,重庆市,重庆市,1,重庆市铜梁区巴川街道中南路55号
492,白龙花园,106.057648,29.824051,白龙花园,重庆市,重庆市,1,重庆市铜梁区巴川街道白龙花园
493,文昌街23号,106.073479,29.63826,文昌街23号,重庆市,重庆市,1,重庆市铜梁区大庙镇文昌街23号
494,,106.926598,28.956659,万东镇,重庆市,重庆市,1,重庆市万盛经开区万东镇
495,天生湖万丽城,108.806854,29.467308,天生湖万丽城,重庆市,重庆市,1,重庆市黔江区正阳街道天生湖万丽城
496,黎明村7组,108.607712,29.572321,黎明村7组,重庆市,重庆市,1,重庆市黔江区石会镇黎明村7组
497,朵力欣元小区,106.489449,29.489853,朵力欣元小区,重庆市,重庆市,1,重庆市大渡口区大堰二村朵力欣元小区
498,柏华小区,106.479179,29.46768,柏华小区,重庆市,重庆市,1,重庆市大渡口区春晖路街道柏华小区
499,柏树街如家酒店,106.266876,29.991409,柏树街如家酒店,重庆市,重庆市,2,重庆市合川区柏树街如家酒店
500,,106.421173,30.16239,双龙湖两塘村,重庆市,重庆市,2,重庆市合川区涞滩镇双龙湖两塘村
501,梅垭村10组,106.085403,30.312361,梅垭村10组,重庆市,重庆市,1,重庆市合川区燕窝镇梅垭村10组
502,蟠龙路222号,106.26804,30.0026,蟠龙路222号,重庆市,重庆市,1,重庆市合川区蟠龙路222号
503,会龙高石村13社,106.377136,30.19623,会龙高石村13社,重庆市,重庆市,1,重庆市合川区钱塘镇会龙高石村13社
504,灰坝村2组,106.319618,30.18224,灰坝村2组,重庆市,重庆市,1,重庆市合川区钱塘镇灰坝村2组
505,,106.354156,30.201321,长安新村,重庆市,重庆市,1,重庆市合川区钱塘镇长安新村
506,南滨师苑小区,107.337097,30.31707,南滨师苑小区,重庆市,重庆市,3,重庆市垫江县桂阳街道南滨师苑小区
507,九龙社区7组,107.403648,30.046391,九龙社区7组,重庆市,重庆市,1,重庆市垫江县坪山镇九龙社区7组
508,东风村5组,107.61586,30.427561,东风村5组,重庆市,重庆市,1,重庆市垫江县普顺镇东风村5组
509,红岩村3组,107.569061,30.444889,红岩村3组,重庆市,重庆市,2,重庆市垫江县普顺镇红岩村3组
510,莲花村7组,107.479668,30.39307,莲花村7组,重庆市,重庆市,1,重庆市垫江县曹回镇莲花村7组
511,多泓尚城小区,107.333923,30.31278,多泓尚城小区,重庆市,重庆市,1,重庆市垫江县桂阳街道多泓尚城小区
512,盛世华都,107.340065,30.329111,盛世华都,重庆市,重庆市,1,重庆市垫江县桂阳街道盛世华都
513,白云村6组,107.282692,30.149191,白云村6组,重庆市,重庆市,1,重庆市垫江县砚台镇白云村6组
514,长红居委3组,107.381142,30.267521,长红居委3组,重庆市,重庆市,3,重庆市垫江县黄沙镇长红居委3组
515,优山美地,106.660873,29.03154,优山美地,重庆市,重庆市,1,重庆市綦江区文龙街道优山美地
516,德信小区,106.645889,29.045027,德信小区,重庆市,重庆市,1,重庆市綦江区文龙街道德信小区
517,景秀江山,106.640137,29.0347,景秀江山,重庆市,重庆市,1,重庆市綦江区文龙街道景秀江山
518,枫丹小区,106.644829,29.04677,枫丹小区,重庆市,重庆市,4,重庆市綦江区文龙街道枫丹小区
519,康瑞苑,106.649971,29.040785,康瑞苑,重庆市,重庆市,2,重庆市綦江区文龙街道金兰街康瑞苑
520,,106.786621,28.8731,欧家村,重庆市,重庆市,1,重庆市綦江区石角镇欧家村
521,普惠尚城名都,106.659416,29.03594,普惠尚城名都,重庆市,重庆市,1,重庆市綦江区文龙街道普惠尚城名都
522,南门路134号4栋,106.655132,29.018186,南门路134号4栋,重庆市,重庆市,1,重庆市綦江区古南街道南门路134号4栋
523,亿丰御景小区,115.786133,33.838718,亿丰御景小区,亳州市,安徽省,1,安徽省亳州市谯城区亿丰御景小区
524,赵老家,115.627296,33.78054,赵老家,亳州市,安徽省,1,安徽省亳州市谯城区十八里镇候桥村赵老家
525,御花园小区,115.76889,33.857979,御花园小区,亳州市,安徽省,1,安徽省亳州市谯城区御花园小区
526,白依路包园新村,115.789352,33.869049,白依路包园新村,亳州市,安徽省,1,安徽省亳州市谯城区薛阁办事处白依路包园新村
527,曹寺行政村东张庄,115.995644,33.95237,曹寺行政村东张庄,亳州市,安徽省,1,安徽省亳州市谯城区颜集镇曹寺行政村东张庄
528,程屯村,115.767792,33.930531,程屯村,亳州市,安徽省,1,安徽省亳州市谯城区华佗镇程屯村
529,小王庄,115.721512,33.94286,小王庄,亳州市,安徽省,1,安徽省亳州市谯城区华佗镇程屯村小王庄
530,上善名郡上园,115.759293,33.867359,上善名郡上园,亳州市,安徽省,1,安徽省亳州市谯城区薛阁街道上善名郡上园
531,三义镇义兴街,116.475677,33.099979,三义镇义兴街,亳州市,安徽省,1,安徽省亳州市蒙城县三义镇义兴街
532,双桥村褚尹庄,116.616692,33.07975,双桥村褚尹庄,亳州市,安徽省,1,安徽省亳州市蒙城县乐土镇双桥村褚尹庄
533,乐土镇柳林街,116.65197,33.107079,乐土镇柳林街,亳州市,安徽省,1,安徽省亳州市蒙城县乐土镇柳林街
534,金天地商业街,116.556511,33.256069,金天地商业街,亳州市,安徽省,1,安徽省亳州市蒙城县城关街道金天地商业街
535,玖隆国际C区,116.56064,33.24014,玖隆国际C区,亳州市,安徽省,1,安徽省亳州市蒙城县庄周街道玖隆国际C区
536,赵集村东孙庄,116.785172,33.401711,赵集村东孙庄,亳州市,安徽省,1,安徽省亳州市蒙城县许疃镇赵集村东孙庄
537,闫集村后钱庄,116.663277,33.375092,闫集村后钱庄,亳州市,安徽省,1,安徽省亳州市蒙城县许疃镇闫集村后钱庄
538,桂堰小区,116.594292,33.242199,桂堰小区,亳州市,安徽省,1,安徽省亳州市蒙城县庄周街道桂堰小区
539,,116.599678,32.955864,常兴社区前尹塘庄,亳州市,安徽省,1,安徽省亳州市蒙城县楚村镇常兴社区前尹塘庄
540,建投世纪城,115.761673,33.80518,建投世纪城,亳州市,安徽省,1,安徽省亳州市高新区建投世纪城
541,翡翠庄园,115.767487,33.81929,翡翠庄园,亳州市,安徽省,1,安徽省亳州市高新区翡翠庄园
542,豪泽丽景小区,115.771439,33.82769,豪泽丽景小区,亳州市,安徽省,1,安徽省亳州市高新区豪泽丽景小区
543,北环中路,116.217339,33.516613,北环中路,亳州市,安徽省,1,安徽省亳州市涡阳县城关镇街道北环中路
544,医苑新村,116.206589,33.490322,医苑新村,亳州市,安徽省,1,安徽省亳州市涡阳县城关镇街道医苑新村
545,付庄行政村付庄,116.40625,33.655571,付庄行政村付庄,亳州市,安徽省,1,安徽省亳州市涡阳县新兴镇付庄行政村付庄
546,左楼付庄,116.224136,33.702351,左楼付庄,亳州市,安徽省,1,安徽省亳州市涡阳县新兴镇左楼付庄
547,桂语城栖,116.190903,33.47234,桂语城栖,亳州市,安徽省,1,安徽省亳州市涡阳县星园街道桂语城栖
548,孙小桥行政村李楼,116.127838,33.499802,孙小桥行政村李楼,亳州市,安徽省,1,安徽省亳州市涡阳县花沟镇孙小桥行政村李楼
549,李庄行政村李庄,116.356941,33.66341,李庄行政村李庄,亳州市,安徽省,1,安徽省亳州市涡阳县马店集镇李庄行政村李庄
550,紫光大道与育英路交口向南,116.20342,33.49568,紫光大道与育英路交口向南,亳州市,安徽省,2,安徽省亳州市涡阳县城关街道紫光大道与育英路交口向南
551,乐行家园,116.214256,33.506474,乐行家园,亳州市,安徽省,1,安徽省亳州市涡阳县城关镇乐行家园
552,付庄行政村,116.224136,33.702351,付庄行政村,亳州市,安徽省,1,安徽省亳州市涡阳县新兴镇付庄行政村
553,孙小桥行政村,116.127838,33.499802,孙小桥行政村,亳州市,安徽省,1,安徽省亳州市涡阳县花沟镇孙小桥行政村
554,,116.238281,33.67923,左楼村,亳州市,安徽省,1,安徽省亳州市涡阳县新兴镇左楼村
555,幸福港湾,116.186211,33.494694,幸福港湾,亳州市,安徽省,1,安徽省亳州市涡阳县新汽车站对面路北小区幸福港湾
556,巨人印象小区,116.199715,33.489044,巨人印象小区,亳州市,安徽省,5,安徽省亳州市涡阳县城关街道巨人印象小区
557,,116.233788,33.595928,大围子自然村,亳州市,安徽省,1,安徽省亳州市涡阳县新兴镇左楼行政村大围子自然村
558,,116.098152,33.493679,狄马村,亳州市,安徽省,1,安徽省亳州市涡阳县花沟镇狄马村
559,巨人印象小区,116.196632,33.489349,巨人印象小区,亳州市,安徽省,3,安徽省亳州市涡阳县巨人印象小区
560,城关镇五一路,116.207062,33.141781,城关镇五一路,亳州市,安徽省,1,安徽省亳州市利辛县城关镇五一路
561,文物所家属院,116.199089,33.144428,文物所家属院,亳州市,安徽省,1,安徽省亳州市利辛县城关镇文物所家属院
562,老供销社家属院,116.201637,33.139309,老供销社家属院,亳州市,安徽省,1,安徽省亳州市利辛县城关镇港口新村老供销社家属院
563,顺河村姚庄,116.138687,33.132359,顺河村姚庄,亳州市,安徽省,1,安徽省亳州市利辛县城关镇顺河村姚庄
564,黄桥社区,116.200844,33.149441,黄桥社区,亳州市,安徽省,1,安徽省亳州市利辛县城关镇黄桥社区
565,张大庄村张大庄,116.32135,33.25433,张大庄村张大庄,亳州市,安徽省,1,安徽省亳州市利辛县潘楼镇张大庄村张大庄
566,刘沈村刘寨,116.097771,33.138821,刘沈村刘寨,亳州市,安徽省,1,安徽省亳州市利辛县王市镇刘沈村刘寨
567,纪王场乡纪竹园庄,116.130531,33.341599,纪王场乡纪竹园庄,亳州市,安徽省,1,安徽省亳州市利辛县纪王场乡纪竹园庄
568,李圩村腰西庄,116.238037,32.95631,李圩村腰西庄,亳州市,安徽省,1,安徽省亳州市利辛县胡集镇李圩村腰西庄
569,张集村东刘,116.123047,33.202,张集村东刘,亳州市,安徽省,1,安徽省亳州市利辛县西潘楼镇张集村东刘
570,阚疃镇人民南路,116.207329,33.13203,阚疃镇人民南路,亳州市,安徽省,1,安徽省亳州市利辛县阚疃镇人民南路
571,金龙国际新城,116.212128,33.163021,金龙国际新城,亳州市,安徽省,1,安徽省亳州市利辛县城关镇金龙国际新城
572,中央名城小区,116.199089,33.144428,中央名城小区,亳州市,安徽省,1,安徽省亳州市利辛县城关镇中央名城小区
573,复兴社区利东东区,116.206863,33.122826,复兴社区利东东区,亳州市,安徽省,2,安徽省亳州市利辛县城关镇复兴社区利东东区
574,春店社区胜利村,116.232552,33.158878,春店社区胜利村,亳州市,安徽省,2,安徽省亳州市利辛县城关镇春店社区胜利村
575,英伦华帝小区,116.191643,33.145378,英伦华帝小区,亳州市,安徽省,2,安徽省亳州市利辛县城关镇前进路英伦华帝小区
576,老二中对面黄寨社区,116.143272,33.140629,老二中对面黄寨社区,亳州市,安徽省,1,安徽省亳州市利辛县老二中对面黄寨社区
577,,116.140732,33.197868,东潘楼村,亳州市,安徽省,1,安徽省亳州市利辛县西潘楼镇东潘楼村
578,,116.212502,33.176289,闫郢村董老寨,亳州市,安徽省,1,安徽省亳州市利辛县城关镇闫郢村董老寨
579,,116.214333,32.988941,程刘村张庄,亳州市,安徽省,1,安徽省亳州市利辛县胡集镇程刘村张庄
580,,116.276459,33.12735,富康村康洼树庄,亳州市,安徽省,1,安徽省亳州市利辛县城关镇富康村康洼树庄
581,,116.208076,33.131832,建设路街道南段,亳州市,安徽省,1,安徽省亳州市利辛县城关镇建设路南段金宝贝幼儿园附近
582,,116.212502,33.176289,董老寨村,亳州市,安徽省,1,安徽省亳州市利辛县城关镇董老寨村
583,复兴社区,116.206863,33.122826,复兴社区,亳州市,安徽省,1,安徽省亳州市利辛县城关镇复兴社区
584,春店社区春店3队,116.204659,33.153732,春店社区春店3队,亳州市,安徽省,1,安徽省亳州市利辛县城关镇春店社区春店3队
585,,116.140732,33.197868,东潘楼村东潘楼,亳州市,安徽省,1,安徽省亳州市利辛县西潘楼镇东潘楼村东潘楼
586,万达广场C区3号楼,117.359962,32.919636,万达广场C区3号楼,蚌埠市,安徽省,1,安徽省蚌埠市蚌山区宏业村街道万达广场C区3号楼
587,同乐园小区8号楼,117.362511,32.942032,同乐园小区8号楼,蚌埠市,安徽省,1,安徽省蚌埠市蚌山区青年街道同乐园小区8号楼
588,大舞台小区1栋,117.360939,32.94009,大舞台小区1栋,蚌埠市,安徽省,1,安徽省蚌埠市蚌山区青年街道大舞台小区1栋
589,新天地小区,117.358551,32.934551,新天地小区,蚌埠市,安徽省,1,安徽省蚌埠市蚌山区黄庄街道新天地小区
590,水游城B区7栋,117.396446,32.919155,水游城B区7栋,蚌埠市,安徽省,1,安徽省蚌埠市蚌山区黄庄街道水游城B区7栋
591,华利街9栋,117.365189,32.944221,华利街9栋,蚌埠市,安徽省,1,安徽省蚌埠市蚌山区青年街道华利街9栋
592,丰泽园小区4栋,117.357536,32.929668,丰泽园小区4栋,蚌埠市,安徽省,2,安徽省蚌埠市蚌山区黄庄街道丰泽园小区4栋
593,中平街62栋,117.36178,32.940278,中平街62栋,蚌埠市,安徽省,1,安徽省蚌埠市蚌山区青年街道中平街62栋
594,张公山二村对面郊区机关宿舍楼,117.331947,32.925079,张公山二村对面郊区机关宿舍楼,蚌埠市,安徽省,1,安徽省蚌埠市禹会区张公山街道张公山二村对面郊区机关宿舍楼
595,张公山北门制钉厂,117.341927,32.921089,张公山北门制钉厂,蚌埠市,安徽省,1,安徽省蚌埠市禹会区张公山街道张公山北门制钉厂
596,胜利公寓2栋,117.348953,32.938129,胜利公寓2栋,蚌埠市,安徽省,1,安徽省蚌埠市禹会区纬四街道胜利公寓2栋
597,锦绣香堤B区13栋,117.34844,32.91294,锦绣香堤B区13栋,蚌埠市,安徽省,2,安徽省蚌埠市禹会区钓鱼台街道锦绣香堤B区13栋
598,喜盈门二期,117.348862,32.913181,喜盈门二期,蚌埠市,安徽省,1,安徽省蚌埠市禹会区钓鱼台街道喜盈门二期
599,张公山派出所旁,117.333023,32.92635,张公山派出所旁,蚌埠市,安徽省,1,安徽省蚌埠市禹会区张公山派出所旁
600,张公山4村419栋,117.328888,32.921459,张公山4村419栋,蚌埠市,安徽省,2,安徽省蚌埠市禹会区张公山街道张公山4村419栋
601,张公山六村613栋,117.334274,32.922749,张公山六村613栋,蚌埠市,安徽省,3,安徽省蚌埠市禹会区张公山街道张公山六村613栋
602,怡康新都1栋,117.348862,32.928459,怡康新都1栋,蚌埠市,安徽省,1,安徽省蚌埠市禹会区朝阳街道怡康新都1栋
603,,117.210197,32.864189,胡圩村,蚌埠市,安徽省,2,安徽省蚌埠市禹会区马城镇胡圩村
604,新船塘小区3栋,117.349411,32.941181,新船塘小区3栋,蚌埠市,安徽省,1,安徽省蚌埠市禹会区纬四街道新船塘小区3栋
605,丰原小区3栋,117.340637,32.925491,丰原小区3栋,蚌埠市,安徽省,1,安徽省蚌埠市禹会区张公山街道丰原小区3栋
606,车苑小区67栋,117.33976,32.904968,车苑小区67栋,蚌埠市,安徽省,1,安徽省蚌埠市禹会区钓鱼台街道车苑小区67栋
607,天地人花园1栋,117.34359,32.938042,天地人花园1栋,蚌埠市,安徽省,1,安徽省蚌埠市禹会区纬四街道天地人花园1栋
608,车苑小区6栋,117.33976,32.904968,车苑小区6栋,蚌埠市,安徽省,1,安徽省蚌埠市禹会区钓鱼台街道车苑小区6栋
609,徐圩乡陆湖村,116.863113,33.085072,徐圩乡陆湖村,蚌埠市,安徽省,1,安徽省蚌埠市怀远县徐圩乡陆湖村
610,,116.904846,33.13448,陈圩村肖庄组,蚌埠市,安徽省,1,安徽省蚌埠市怀远县包集镇陈圩村肖庄组
611,新新尚层,117.373077,32.933041,新新尚层,蚌埠市,安徽省,1,安徽省蚌埠市经开区淮河社区新新尚层
612,阿卡碧水湾小区,117.368279,32.924091,阿卡碧水湾小区,蚌埠市,安徽省,2,安徽省蚌埠市经开区淮河社区阿卡碧水湾小区
613,香堤荣府,117.385529,32.936581,香堤荣府,蚌埠市,安徽省,1,安徽省蚌埠市经开区淮河社区香堤荣府
614,恒大御景湾,117.398888,32.912521,恒大御景湾,蚌埠市,安徽省,1,安徽省蚌埠市经开区湖滨社区恒大御景湾
615,湖畔花都,117.377411,32.909981,湖畔花都,蚌埠市,安徽省,1,安徽省蚌埠市经开区湖滨社区湖畔花都
616,大塘名门,117.373238,32.93829,大塘名门,蚌埠市,安徽省,1,安徽省蚌埠市经开区胜利街道大塘名门
617,金融小区,117.378212,32.936897,金融小区,蚌埠市,安徽省,1,安徽省蚌埠市经开区胜利街道金融小区
618,华景家园,117.361687,32.933941,华景家园,蚌埠市,安徽省,1,安徽省蚌埠市经开区胜利街道华景家园
619,东航校小区25栋,117.372414,32.93705,东航校小区25栋,蚌埠市,安徽省,2,安徽省蚌埠市经开区胜利街道东航校小区25栋
620,,117.494492,32.964901,卫东村,蚌埠市,安徽省,2,安徽省蚌埠市经开区长淮卫镇卫东村
621,淮河社区新新尚层1栋,117.373077,32.933041,淮河社区新新尚层1栋,蚌埠市,安徽省,2,安徽省蚌埠市经开区淮河社区新新尚层1栋
622,淮河社区阿卡阳光苑6栋,117.483978,32.961529,淮河社区阿卡阳光苑6栋,蚌埠市,安徽省,1,安徽省蚌埠市经开区淮河社区阿卡阳光苑6栋
623,财富广场南区2栋,117.371449,32.932058,财富广场南区2栋,蚌埠市,安徽省,1,安徽省蚌埠市经开区胜利街道财富广场南区2栋
624,淮河社区新新尚层小区1栋,117.373077,32.933041,淮河社区新新尚层小区1栋,蚌埠市,安徽省,1,安徽省蚌埠市经开区淮河社区新新尚层小区1栋
625,淮河社区沁雅凯旋城19栋,117.360924,32.926102,淮河社区沁雅凯旋城19栋,蚌埠市,安徽省,1,安徽省蚌埠市经开区淮河社区沁雅凯旋城19栋
626,湖滨社区恒大御景湾2栋,117.398888,32.912521,湖滨社区恒大御景湾2栋,蚌埠市,安徽省,1,安徽省蚌埠市经开区湖滨社区恒大御景湾2栋
627,蓝天紫竹苑5栋,117.381042,32.934521,蓝天紫竹苑5栋,蚌埠市,安徽省,1,安徽省蚌埠市经开区胜利街道蓝天紫竹苑5栋
628,湖滨社区兰庭书苑1栋,117.390663,32.925014,湖滨社区兰庭书苑1栋,蚌埠市,安徽省,1,安徽省蚌埠市经开区湖滨社区兰庭书苑1栋
629,迎宾山庄C区14栋,117.400848,32.92942,迎宾山庄C区14栋,蚌埠市,安徽省,1,安徽省蚌埠市经开区龙湖街道迎宾山庄C区14栋
630,欧洲花园,117.322632,32.9272,欧洲花园,蚌埠市,安徽省,1,安徽省蚌埠市洪山区徐东村欧洲花园
631,东方新天地小区18栋,117.384521,32.948978,东方新天地小区18栋,蚌埠市,安徽省,1,安徽省蚌埠市龙子湖区东升街道东方新天地小区18栋
632,隆华小区2栋,117.373947,32.940353,隆华小区2栋,蚌埠市,安徽省,1,安徽省蚌埠市龙子湖区延安街道隆华小区2栋
633,长淮路270号水科新楼,117.376091,32.951801,长淮路270号水科新楼,蚌埠市,安徽省,1,安徽省蚌埠市龙子湖区治淮街道长淮路270号水科新楼
634,广厦小区2栋,117.389587,32.947708,广厦小区2栋,蚌埠市,安徽省,2,安徽省蚌埠市龙子湖区解放街道广厦小区2栋
635,东方新天地,117.384521,32.948978,东方新天地,蚌埠市,安徽省,1,安徽省蚌埠市龙子湖区东升街道东方新天地
636,交通路186号,117.3777,32.9488,交通路186号,蚌埠市,安徽省,1,安徽省蚌埠市龙子湖区东升街道交通路186号
637,中铁都市家园,117.386421,32.94083,中铁都市家园,蚌埠市,安徽省,1,安徽省蚌埠市龙子湖区延安街道中铁都市家园
638,延安一村,117.371269,32.949169,延安一村,蚌埠市,安徽省,1,安徽省蚌埠市龙子湖区延安街道延安一村
639,东苑小区,117.371567,32.9459,东苑小区,蚌埠市,安徽省,1,安徽省蚌埠市龙子湖区治淮街道东苑小区
640,延安三区,117.374878,32.948799,延安三区,蚌埠市,安徽省,1,安徽省蚌埠市龙子湖区治淮街道延安三区
641,淮河路854号,117.3741,32.94468,淮河路854号,蚌埠市,安徽省,1,安徽省蚌埠市龙子湖区治淮街道淮河路854号
642,广厦小区,117.389587,32.947708,广厦小区,蚌埠市,安徽省,2,安徽省蚌埠市龙子湖区解放街道广厦小区
643,金润名都,117.392487,32.94854,金润名都,蚌埠市,安徽省,2,安徽省蚌埠市龙子湖区解放街道金润名都
644,凤阳东路480号东单元,117.38519,32.94523,凤阳东路480号东单元,蚌埠市,安徽省,2,安徽省蚌埠市龙子湖区东升街道凤阳东路480号东单元
645,淮河路854号2单元,117.3741,32.94468,淮河路854号2单元,蚌埠市,安徽省,1,安徽省蚌埠市龙子湖区东风街道淮河路854号2单元
646,金润名都7栋,117.392487,32.94854,金润名都7栋,蚌埠市,安徽省,1,安徽省蚌埠市龙子湖区解放街道金润名都7栋
647,华阳淮畔小区7栋,117.381378,32.954498,华阳淮畔小区7栋,蚌埠市,安徽省,1,安徽省蚌埠市龙子湖区东升街道华阳淮畔小区7栋
648,延安一村2栋,117.372078,32.949157,延安一村2栋,蚌埠市,安徽省,1,安徽省蚌埠市龙子湖区治淮街道延安一村2栋
649,沁心苑小区3栋,117.3825,32.946579,沁心苑小区3栋,蚌埠市,安徽省,1,安徽省蚌埠市龙子湖区东升街道沁心苑小区3栋
650,东方之星小区2栋,117.38678,32.949001,东方之星小区2栋,蚌埠市,安徽省,1,安徽省蚌埠市龙子湖区解放街道东方之星小区2栋
651,淮秀园小区3栋,117.39151,32.942909,淮秀园小区3栋,蚌埠市,安徽省,1,安徽省蚌埠市龙子湖区解放街道淮秀园小区3栋
652,淮建一村10栋,117.380127,32.952709,淮建一村10栋,蚌埠市,安徽省,2,安徽省蚌埠市龙子湖区东升街道长淮路淮建一村10栋
653,金珠苑小区2栋,117.398178,32.939171,金珠苑小区2栋,蚌埠市,安徽省,1,安徽省蚌埠市龙子湖区延安街道金珠苑小区2栋
654,金润名都17栋,117.392487,32.94854,金润名都17栋,蚌埠市,安徽省,1,安徽省蚌埠市龙子湖区解放街道金润名都17栋
655,文锦路社区山水华庭小区32栋,117.336952,32.915791,文锦路社区山水华庭小区32栋,蚌埠市,安徽省,1,安徽省蚌埠市高新区文锦路社区山水华庭小区32栋
656,绿地世纪城社区西绿地津桥公馆,117.30442,32.908459,绿地世纪城社区西绿地津桥公馆,蚌埠市,安徽省,1,安徽省蚌埠市高新区绿地世纪城社区西绿地津桥公馆
657,科苑社区嘉和豪庭1栋,117.323677,32.908901,科苑社区嘉和豪庭1栋,蚌埠市,安徽省,1,安徽省蚌埠市高新区科苑社区嘉和豪庭1栋
658,方圆机电小区14栋,117.332031,32.915649,方圆机电小区14栋,蚌埠市,安徽省,1,安徽省蚌埠市高新区文锦路社区方圆机电小区14栋
659,绿地世纪城社区伊顿公馆5栋,117.304901,32.909752,绿地世纪城社区伊顿公馆5栋,蚌埠市,安徽省,1,安徽省蚌埠市高新区绿地世纪城社区伊顿公馆5栋
660,通城紫都10栋,117.394226,32.96909,通城紫都10栋,蚌埠市,安徽省,1,安徽省蚌埠市淮上区吴小街镇通城紫都10栋
661,外滩花园20栋,117.365273,32.967941,外滩花园20栋,蚌埠市,安徽省,1,安徽省蚌埠市淮上区小蚌埠镇外滩花园20栋
662,荷花园小区一期A5号楼,117.37923,32.97194,荷花园小区一期A5号楼,蚌埠市,安徽省,1,安徽省蚌埠市淮上区小蚌埠镇荷花园小区一期A5号楼
663,,117.299858,33.033421,淝南村,蚌埠市,安徽省,2,安徽省蚌埠市淮上区梅桥镇淝南村
664,上河时代北区,117.366173,32.969009,上河时代北区,蚌埠市,安徽省,1,安徽省蚌埠市淮上区淮滨街道上河时代北区
665,上河时代北区20栋,117.366173,32.969009,上河时代北区20栋,蚌埠市,安徽省,1,安徽省蚌埠市淮上区淮滨街道上河时代北区20栋
666,小蚌埠镇荷花园1期12栋,117.376045,32.970314,小蚌埠镇荷花园1期12栋,蚌埠市,安徽省,1,安徽省蚌埠市淮上区小蚌埠镇荷花园1期12栋
667,荷花园1期A5栋,117.376045,32.970314,荷花园1期A5栋,蚌埠市,安徽省,1,安徽省蚌埠市淮上区小蚌埠镇荷花园1期A5栋
668,城市之光C区,117.87793,31.61656,城市之光C区,合肥市,安徽省,1,安徽省合肥市巢湖市凤凰山街道城市之光C区
669,武山居委会,117.612274,31.420982,武山居委会,合肥市,安徽省,1,安徽省合肥市巢湖市槐林镇武山居委会
670,玉成明珠苑,117.191658,31.946278,玉成明珠苑,合肥市,安徽省,1,安徽省合肥市长丰县岗集镇玉成明珠苑
671,阿奎利亚城品,117.259727,31.95619,阿奎利亚城品,合肥市,安徽省,1,安徽省合肥市长丰县阿奎利亚城品
672,,117.259727,32.200161,顾圩村,合肥市,安徽省,1,安徽省合肥市长丰县下塘镇顾圩村
673,北城世纪城一期颐徽苑,117.244935,32.005156,北城世纪城一期颐徽苑,合肥市,安徽省,1,安徽省合肥市长丰县北城世纪城一期颐徽苑
674,北城明珠小区,117.260208,31.970671,北城明珠小区,合肥市,安徽省,1,安徽省合肥市长丰县北城明珠小区
675,,117.67775,32.139271,王城社区,合肥市,安徽省,1,安徽省合肥市肥东县八斗镇王城社区
676,光大居委会光大新村,117.453407,31.89065,光大居委会光大新村,合肥市,安徽省,1,安徽省合肥市肥东县店埠镇光大居委会光大新村
677,凯旋公馆,117.448624,31.889799,凯旋公馆,合肥市,安徽省,1,安徽省合肥市肥东县店埠镇凯旋公馆
678,汇景新城,117.461853,31.88685,汇景新城,合肥市,安徽省,1,安徽省合肥市肥东县店埠镇和平社区汇景新城
679,传桥组,117.487785,31.877279,传桥组,合肥市,安徽省,1,安徽省合肥市肥东县店埠镇定光社区传桥组
680,新农村小区,117.487785,31.877279,新农村小区,合肥市,安徽省,1,安徽省合肥市肥东县店埠镇定光社区新农村小区
681,新城家园,117.452271,31.86648,新城家园,合肥市,安徽省,1,安徽省合肥市肥东县店埠镇新城社区新城家园
682,,117.469696,31.881382,镇南社区,合肥市,安徽省,1,安徽省合肥市肥东县店埠镇镇南社区
683,育红小学宿舍楼,117.471291,31.884501,育红小学宿舍楼,合肥市,安徽省,1,安徽省合肥市肥东县店埠镇青春社区育红小学宿舍楼
684,,117.507332,31.950085,民新村,合肥市,安徽省,1,安徽省合肥市肥东县牌坊回族满族乡民新村
685,供销社宿舍,117.6334,31.93203,供销社宿舍,合肥市,安徽省,1,安徽省合肥市肥东县石塘镇供销社宿舍
686,,117.6334,31.93203,新展社区,合肥市,安徽省,1,安徽省合肥市肥东县石塘镇新展社区
687,,117.567917,31.899361,龙城社区,合肥市,安徽省,1,安徽省合肥市肥东县石塘镇龙城社区
688,紫玉华府,117.420578,31.890209,紫玉华府,合肥市,安徽省,1,安徽省合肥市肥东县陈大郢社区紫玉华府
689,,117.846298,32.047058,沙河村,合肥市,安徽省,1,安徽省合肥市肥东县马湖乡沙河村
690,,117.844467,32.06942,马湖社区,合肥市,安徽省,1,安徽省合肥市肥东县马湖乡马湖社区
691,星光嘉苑,117.466843,31.88942,星光嘉苑,合肥市,安徽省,1,安徽省合肥市肥东县店埠镇星光嘉苑
692,双桥新村,117.50486,31.862881,双桥新村,合肥市,安徽省,1,安徽省合肥市肥东县店埠镇双桥新村
693,,117.585152,31.87163,桑园村,合肥市,安徽省,1,安徽省合肥市肥东县店埠镇桑园村
694,原卫生局宿舍康居苑小区,117.48558,31.877138,原卫生局宿舍康居苑小区,合肥市,安徽省,1,安徽省合肥市肥东县店埠镇沿河东路原卫生局宿舍康居苑小区
695,,117.576347,31.95878,俞庙村,合肥市,安徽省,1,安徽省合肥市肥东县梁园镇俞庙村
696,华邦万派城,117.164101,31.727461,华邦万派城,合肥市,安徽省,1,安徽省合肥市肥西县上派镇华邦万派城
697,,117.195953,31.68487,韩圩村,合肥市,安徽省,1,安徽省合肥市肥西县上派镇韩圩村
698,东冠繁华逸城,117.172684,31.78264,东冠繁华逸城,合肥市,安徽省,1,安徽省合肥市肥西县桃花镇东冠繁华逸城
699,信地华地城,117.1651,31.78064,信地华地城,合肥市,安徽省,1,安徽省合肥市肥西县桃花镇信地华地城
700,,116.786743,31.761841,墩塘村,合肥市,安徽省,1,安徽省合肥市肥西县铭传乡墩塘村
701,,116.772598,31.672239,光明村,合肥市,安徽省,1,安徽省合肥市肥西县山南镇光明村
702,名邦中央公馆,117.159912,31.705099,名邦中央公馆,合肥市,安徽省,1,安徽省合肥市肥西县上派镇名邦中央公馆
703,宝利丰广场,117.286774,31.83544,宝利丰广场,合肥市,安徽省,1,安徽省合肥市包河区宝利丰广场
704,曙宏南苑,117.275787,31.82452,曙宏南苑,合肥市,安徽省,1,安徽省合肥市包河区曙宏南苑
705,滨湖明珠西区,117.28219,31.73312,滨湖明珠西区,合肥市,安徽省,1,安徽省合肥市包河区滨湖明珠西区
706,琼林苑小区,117.289932,31.748102,琼林苑小区,合肥市,安徽省,1,安徽省合肥市包河区琼林苑小区
707,豪门金地小区,117.280571,31.706409,豪门金地小区,合肥市,安徽省,1,安徽省合肥市包河区豪门金地小区
708,金湾嘉园,117.306091,31.85006,金湾嘉园,合肥市,安徽省,1,安徽省合肥市包河区金湾嘉园
709,兴丰苑小区,117.293159,31.850479,兴丰苑小区,合肥市,安徽省,1,安徽省合肥市包河区兴丰苑小区
710,临泉花苑小区,117.304039,31.88673,临泉花苑小区,合肥市,安徽省,1,安徽省合肥市瑶海区临泉花苑小区
711,元一名城,117.292686,31.890617,元一名城,合肥市,安徽省,1,安徽省合肥市瑶海区元一名城
712,凤翔家园,117.321709,31.87384,凤翔家园,合肥市,安徽省,1,安徽省合肥市瑶海区凤翔家园
713,华都城市花园,117.376839,31.86614,华都城市花园,合肥市,安徽省,1,安徽省合肥市瑶海区华都城市花园
714,怡馨苑,117.30117,31.882,怡馨苑,合肥市,安徽省,1,安徽省合肥市瑶海区怡馨苑
715,恒丰嘉园,117.324287,31.868891,恒丰嘉园,合肥市,安徽省,1,安徽省合肥市瑶海区恒丰嘉园
716,恒大中央广场,117.298576,31.875879,恒大中央广场,合肥市,安徽省,1,安徽省合肥市瑶海区恒大中央广场
717,斯瑞新景苑,117.367607,31.874729,斯瑞新景苑,合肥市,安徽省,1,安徽省合肥市瑶海区斯瑞新景苑
718,新创益民家园,117.387802,31.86816,新创益民家园,合肥市,安徽省,1,安徽省合肥市瑶海区新创益民家园
719,温莎国际广场,117.309425,31.874451,温莎国际广场,合肥市,安徽省,1,安徽省合肥市瑶海区温莎国际广场
720,铜陵路工业锅炉厂宿舍,117.32357,31.869989,铜陵路工业锅炉厂宿舍,合肥市,安徽省,1,安徽省合肥市瑶海区铜陵路工业锅炉厂宿舍
721,长江东路五里井17栋,117.328751,31.867077,长江东路五里井17栋,合肥市,安徽省,1,安徽省合肥市瑶海区长江东路五里井17栋
722,芳邻家园,117.333656,31.873131,芳邻家园,合肥市,安徽省,1,安徽省合肥市瑶海区芳邻家园
723,合浦新村（恢复楼）,117.354279,31.86565,合浦新村（恢复楼）,合肥市,安徽省,1,安徽省合肥市瑶海区大兴镇合浦新村（恢复楼）
724,海洲景秀世家2期,117.36676,31.88011,海洲景秀世家2期,合肥市,安徽省,1,安徽省合肥市瑶海区海洲景秀世家2期
725,马岗社区龙岗管委会宿舍楼,117.372261,31.864079,马岗社区龙岗管委会宿舍楼,合肥市,安徽省,1,安徽省合肥市瑶海区马岗社区龙岗管委会宿舍楼
726,红星家园,117.308037,31.88308,红星家园,合肥市,安徽省,1,安徽省合肥市瑶海区红星家园
727,香江世纪名城,117.335159,31.875299,香江世纪名城,合肥市,安徽省,1,安徽省合肥市瑶海区香江世纪名城
728,岭湖墅,117.149162,31.823151,岭湖墅,合肥市,安徽省,1,安徽省合肥市高新区岭湖墅
729,,117.333885,31.269855,冶父山社区,合肥市,安徽省,1,安徽省合肥市庐江县冶父山镇冶父山社区
730,,117.29203,31.476749,施丰村,合肥市,安徽省,1,安徽省合肥市庐江县同大镇施丰村
731,翠绿园,117.294563,31.257862,翠绿园,合肥市,安徽省,1,安徽省合肥市庐江县庐城镇翠绿园
732,,117.185913,31.189911,城池村,合肥市,安徽省,1,安徽省合肥市庐江县柯坦镇城池村
733,,117.432388,31.06563,新中村,合肥市,安徽省,1,安徽省合肥市庐江县矾山镇新中村
734,,117.237877,31.06312,吉桥村,合肥市,安徽省,1,安徽省合肥市庐江县罗河镇吉桥村
735,,117.392632,30.982321,鲍店村,合肥市,安徽省,1,安徽省合肥市庐江县罗河镇鲍店村
736,,117.169968,31.376863,铺岗村,合肥市,安徽省,1,安徽省合肥市庐江县金牛镇铺岗村
737,,117.326378,31.066971,八里村,合肥市,安徽省,1,安徽省合肥市庐江县泥河镇八里村
738,合郢花园,117.373077,31.90399,合郢花园,合肥市,安徽省,1,安徽省合肥市新站区合郢花园
739,园上园公寓楼,117.358513,31.887011,园上园公寓楼,合肥市,安徽省,1,安徽省合肥市新站区园上园公寓楼
740,家天下3期,117.324829,31.893736,家天下3期,合肥市,安徽省,1,安徽省合肥市新站区家天下3期
741,新海尚宸家园,117.342247,31.898899,新海尚宸家园,合肥市,安徽省,1,安徽省合肥市新站区新海尚宸家园
742,昊天园小区,117.423203,31.933254,昊天园小区,合肥市,安徽省,1,安徽省合肥市新站区昊天园小区
743,京商商贸城,117.343521,31.928022,京商商贸城,合肥市,安徽省,1,安徽省合肥市新站区京商商贸城
744,张洼新村,117.319672,31.905239,张洼新村,合肥市,安徽省,1,安徽省合肥市新站区张洼新村
745,金辉悦府小区,117.324478,31.91856,金辉悦府小区,合肥市,安徽省,1,安徽省合肥市新站区金辉悦府小区
746,瑶海佳苑（兴华苑三期）,117.322212,31.9044,瑶海佳苑（兴华苑三期）,合肥市,安徽省,1,安徽省合肥市新站区瑶海佳苑（兴华苑三期）
747,中央美域A区,117.236572,31.86734,中央美域A区,合肥市,安徽省,1,安徽省合肥市蜀山区中央美域A区
748,中铁青秀城,117.245049,31.8717,中铁青秀城,合肥市,安徽省,1,安徽省合肥市蜀山区中铁青秀城
749,内森庄园,117.214027,31.815748,内森庄园,合肥市,安徽省,1,安徽省合肥市蜀山区内森庄园
750,和谐家园（长丰南路）,117.246239,31.81955,和谐家园（长丰南路）,合肥市,安徽省,1,安徽省合肥市蜀山区和谐家园（长丰南路）
751,天和园,117.21106,31.80793,天和园,合肥市,安徽省,1,安徽省合肥市蜀山区天和园
752,当代花园,117.2239,31.8298,当代花园,合肥市,安徽省,1,安徽省合肥市蜀山区当代花园
753,颐和阳光100小区,117.242233,31.857639,颐和阳光100小区,合肥市,安徽省,1,安徽省合肥市蜀山区颐和阳光100小区
754,颐园世家,117.220543,31.799419,颐园世家,合肥市,安徽省,1,安徽省合肥市蜀山区颐园世家
755,龙居山庄天龙居,117.241882,31.864996,龙居山庄天龙居,合肥市,安徽省,1,安徽省合肥市蜀山区龙居山庄天龙居
756,岳西新村B区,117.224106,31.85121,岳西新村B区,合肥市,安徽省,1,安徽省合肥市蜀山区岳西新村B区
757,通和易居北苑,117.24855,31.84676,通和易居北苑,合肥市,安徽省,1,安徽省合肥市蜀山区通和易居北苑
758,家家景园3期,117.229713,31.857969,家家景园3期,合肥市,安徽省,1,安徽省合肥市蜀山区家家景园3期
759,安徽电力公司黄山路生活区,117.207726,31.864021,安徽电力公司黄山路生活区,合肥市,安徽省,1,安徽省合肥市蜀山区安徽电力公司黄山路生活区
760,古城新村,117.25576,31.875839,古城新村,合肥市,安徽省,1,安徽省合肥市庐阳区古城新村
761,探矿厂宿舍,117.286018,31.905523,探矿厂宿舍,合肥市,安徽省,1,安徽省合肥市庐阳区探矿厂宿舍
762,杏林花园南区,117.2873,31.89435,杏林花园南区,合肥市,安徽省,1,安徽省合肥市庐阳区杏林花园南区
763,柏景湾青云轩,117.271576,31.877001,柏景湾青云轩,合肥市,安徽省,1,安徽省合肥市庐阳区柏景湾青云轩
764,海亮红玺台小区,117.266151,31.89242,海亮红玺台小区,合肥市,安徽省,1,安徽省合肥市庐阳区海亮红玺台小区
765,海棠别院,117.268982,31.893364,海棠别院,合肥市,安徽省,1,安徽省合肥市庐阳区海棠别院
766,四泉花园南区,117.253517,31.885321,四泉花园南区,合肥市,安徽省,1,安徽省合肥市庐阳区四泉花园南区
767,土产日杂公司宿舍,117.258232,31.898203,土产日杂公司宿舍,合肥市,安徽省,1,安徽省合肥市庐阳区土产日杂公司宿舍
768,公园西村,117.293198,31.86784,公园西村,合肥市,安徽省,1,安徽省合肥市庐阳区公园西村
769,奇瑞BOBO城H区,118.397308,31.46122,奇瑞BOBO城H区,芜湖市,安徽省,2,安徽省芜湖市经开区奇瑞BOBO城H区
770,六桥自然村,118.55751,31.064831,六桥自然村,芜湖市,安徽省,1,安徽省芜湖市芜湖县红杨镇红杨树社区六桥自然村
771,华盛小区,118.363792,31.326241,华盛小区,芜湖市,安徽省,1,安徽省芜湖市镜湖区七更点社区华盛小区
772,绿地伊顿公馆,118.411118,31.330208,绿地伊顿公馆,芜湖市,安徽省,3,安徽省芜湖市镜湖区凯旋社区绿地伊顿公馆
773,白金湾小区,118.386787,31.33835,白金湾小区,芜湖市,安徽省,1,安徽省芜湖市镜湖区文化路社区白金湾小区
774,绿地6号地块C区,118.415482,31.32761,绿地6号地块C区,芜湖市,安徽省,1,安徽省芜湖市镜湖区海南渡社区绿地6号地块C区
775,金都檀宫小区,118.471642,31.330521,金都檀宫小区,芜湖市,安徽省,1,安徽省芜湖市鸠江区清水街道金都檀宫小区
776,西梁山危化品锚地,118.40807,31.46785,西梁山危化品锚地,芜湖市,安徽省,1,安徽省芜湖市鸠江区龙山街道西梁山危化品锚地
777,响山中学,117.798828,31.443069,响山中学,芜湖市,安徽省,1,安徽省芜湖市无为市严桥镇响山中学
778,金河小区,117.90554,31.30776,金河小区,芜湖市,安徽省,1,安徽省芜湖市无为市无城镇凤河路金河小区
779,府苑小区,117.899757,31.305161,府苑小区,芜湖市,安徽省,4,安徽省芜湖市无为市无城镇府苑小区
780,薛巷自然村,118.079422,31.416241,薛巷自然村,芜湖市,安徽省,1,安徽省芜湖市无为市陡沟镇凤凰桥社区薛巷自然村
781,健博花园小区,118.013237,31.356199,健博花园小区,芜湖市,安徽省,1,安徽省芜湖市无为市陡沟镇陡沟社区健博花园小区
782,陈一自然村,117.733818,31.094391,陈一自然村,芜湖市,安徽省,2,安徽省芜湖市无为市洪巷镇青岗行政村陈一自然村
783,东湖自然村,117.925491,31.125076,东湖自然村,芜湖市,安徽省,1,安徽省芜湖市无为市高沟镇健全行政村东湖自然村
784,羊场自然村,117.747643,31.29076,羊场自然村,芜湖市,安徽省,2,安徽省芜湖市无为市开城镇羊山行政村羊场自然村
785,新世纪花园,118.34079,30.91469,新世纪花园,芜湖市,安徽省,1,安徽省芜湖市南陵县新世纪花园
786,天禧楼小区,118.349083,30.9191,天禧楼小区,芜湖市,安徽省,1,安徽省芜湖市南陵县籍山镇东门大桥天禧楼小区
787,江岸明珠,118.370056,31.316469,江岸明珠,芜湖市,安徽省,1,安徽省芜湖市弋江区中南街道江岸明珠
788,江城国际瑞华苑,118.394119,31.301571,江城国际瑞华苑,芜湖市,安徽省,1,安徽省芜湖市弋江区南瑞街道江城国际瑞华苑
789,江岸明珠小区,118.370056,31.316469,江岸明珠小区,芜湖市,安徽省,1,安徽省芜湖市弋江区江岸明珠小区
790,,117.855957,30.947758,土桥街道,铜陵市,安徽省,1,安徽省铜陵市无为市牛埠镇土桥街道
791,,117.270523,30.851721,庆华村,铜陵市,安徽省,3,安徽省铜陵市枞阳县会宫镇庆华村
792,,117.309029,30.82242,拔茅村,铜陵市,安徽省,1,安徽省铜陵市枞阳县会宫镇拔茅村
793,,117.317131,30.74229,郭桥村,铜陵市,安徽省,1,安徽省铜陵市枞阳县枞阳镇郭桥村
794,,117.522308,30.892969,左山村,铜陵市,安徽省,1,安徽省铜陵市枞阳县横埠镇左山村
795,建材大市场,117.506073,30.89901,建材大市场,铜陵市,安徽省,2,安徽省铜陵市枞阳县横埠镇建材大市场
796,,117.439705,30.855785,方正村,铜陵市,安徽省,1,安徽省铜陵市枞阳县横埠镇方正村
797,,117.489449,30.86125,龙山村,铜陵市,安徽省,1,安徽省铜陵市枞阳县横埠镇龙山村
798,,117.252731,30.908291,向阳村,铜陵市,安徽省,1,安徽省铜陵市枞阳县浮山镇向阳村
799,,117.279861,30.90988,浮山村,铜陵市,安徽省,1,安徽省铜陵市枞阳县浮山镇浮山村
800,,117.332108,30.971189,龙井村,铜陵市,安徽省,1,安徽省铜陵市枞阳县白柳镇龙井村
801,,117.396469,30.72201,藕山村,铜陵市,安徽省,1,安徽省铜陵市枞阳县藕山镇藕山村
802,,117.219467,30.6576,新丰村,铜陵市,安徽省,2,安徽省铜陵市枞阳县铁铜乡新丰村
803,,117.157532,30.789579,先锋村,铜陵市,安徽省,2,安徽省铜陵市枞阳县雨坛镇先锋村
804,,117.484306,30.946951,将军村,铜陵市,安徽省,4,安徽省铜陵市枞阳县钱铺镇将军村
805,,118.131409,30.955759,九榔村,铜陵市,安徽省,2,安徽省铜陵市义安区钟鸣镇九榔村
806,,117.811607,31.065491,长杨村,铜陵市,安徽省,1,安徽省铜陵市义安区胥坝乡长杨村
807,天山社区,117.87431,30.95614,天山社区,铜陵市,安徽省,1,安徽省铜陵市铜官区天山社区
808,,117.790466,30.919291,机厂新村,铜陵市,安徽省,1,安徽省铜陵市铜官区机厂新村
809,,118.004349,32.990391,古沛镇,滁州市,安徽省,1,安徽省滁州市明光市古沛镇
810,泰鑫现代城东区,118.317131,32.29985,泰鑫现代城东区,滁州市,安徽省,1,安徽省滁州市琅琊区清流街道泰鑫现代城东区
811,,117.219681,32.68367,官塘镇,滁州市,安徽省,7,安徽省滁州市凤阳县官塘镇
812,,119.012642,32.679459,天长街道,滁州市,安徽省,2,安徽省滁州市天长市天长街道
813,,118.775574,32.666061,汊涧镇,滁州市,安徽省,1,安徽省滁州市天长市汊涧镇
814,,116.306358,31.3624,通水灌村,六安市,安徽省,1,安徽省六安市霍山县佛子岭镇通水灌村
815,上元街社区,116.316299,31.402969,上元街社区,六安市,安徽省,1,安徽省六安市霍山县衡山镇上元街社区
816,南岳村,116.31189,31.395321,南岳村,六安市,安徽省,1,安徽省六安市霍山县衡山镇南岳村
817,南潭社区,116.328957,31.40316,南潭社区,六安市,安徽省,1,安徽省六安市霍山县衡山镇南潭社区
818,和顺花园D区,116.316299,31.402969,和顺花园D区,六安市,安徽省,1,安徽省六安市霍山县衡山镇和顺花园D区
819,文峰社区,116.339005,31.397722,文峰社区,六安市,安徽省,1,安徽省六安市霍山县衡山镇文峰社区
820,荷香社区,116.332268,31.401733,荷香社区,六安市,安徽省,1,安徽省六安市霍山县衡山镇荷香社区
821,衡山社区,116.33297,31.39435,衡山社区,六安市,安徽省,1,安徽省六安市霍山县衡山镇衡山社区
822,西大街社区,116.323128,31.406321,西大街社区,六安市,安徽省,1,安徽省六安市霍山县衡山镇西大街社区
823,,116.227768,31.432659,新店河村,六安市,安徽省,1,安徽省六安市霍山县黑石渡镇新店河村
824,儿街社区,116.44986,31.386,儿街社区,六安市,安徽省,1,安徽省六安市霍山县与儿街镇儿街社区
825,山王河村,116.398468,31.429562,山王河村,六安市,安徽省,1,安徽省六安市霍山县与儿街镇山王河村
826,,116.446907,31.38673,与儿街镇,六安市,安徽省,1,安徽省六安市霍山县与儿街镇
827,,116.25528,31.3601,佛子岭镇,六安市,安徽省,2,安徽省六安市霍山县佛子岭镇
828,,116.384804,31.424393,经济开发区,六安市,安徽省,1,安徽省六安市霍山县经济开发区
829,,116.316299,31.402969,衡山镇,六安市,安徽省,5,安徽省六安市霍山县衡山镇
830,凯旋名门3号楼,116.473282,31.735291,凯旋名门3号楼,六安市,安徽省,1,安徽省六安市裕安区凯旋名门3号楼
831,华邦新华城,116.488112,31.753592,华邦新华城,六安市,安徽省,1,安徽省六安市裕安区华邦新华城
832,帝都豪园13栋,116.484831,31.740378,帝都豪园13栋,六安市,安徽省,1,安徽省六安市裕安区帝都豪园13栋
833,茶叶市场,116.51046,31.75309,茶叶市场,六安市,安徽省,1,安徽省六安市裕安区独山镇茶叶市场
834,,116.215302,31.77474,黄大路村,六安市,安徽省,1,安徽省六安市裕安区狮子岗黄大路村
835,祝张路黄莲村岗桥组,116.395813,31.633619,祝张路黄莲村岗桥组,六安市,安徽省,1,安徽省六安市裕安区苏埠镇祝张路黄莲村岗桥组
836,,116.275757,31.557249,马林村,六安市,安徽省,1,安徽省六安市裕安区西河口镇马林村
837,八字岗村汪冲组,116.392967,31.564301,八字岗村汪冲组,六安市,安徽省,1,安徽省六安市裕安区青山乡八字岗村汪冲组
838,帝都豪园小区,116.485519,31.740459,帝都豪园小区,六安市,安徽省,2,安徽省六安市裕安区西市街道帝都豪园小区
839,浙东商贸城D区,116.49753,31.74611,浙东商贸城D区,六安市,安徽省,1,安徽省六安市金安区中市街道前进社区浙东商贸城D区
840,五十铺村士坤组,116.651924,31.583189,五十铺村士坤组,六安市,安徽省,1,安徽省六安市金安区孙岗镇五十铺村士坤组
841,龙穴村张大郢组,116.66008,31.70269,龙穴村张大郢组,六安市,安徽省,1,安徽省六安市金安区椿树镇龙穴村张大郢组
842,海心沙小区,116.5069,31.77944,海心沙小区,六安市,安徽省,1,安徽省六安市金安区清水河街道刘园社区海心沙小区
843,,116.721687,31.687599,椿树镇,六安市,安徽省,1,安徽省六安市金安区椿树镇
844,,115.498207,31.49868,关庙村,六安市,安徽省,1,安徽省六安市金寨县关庙乡关庙村
845,,115.640533,31.515394,南溪村,六安市,安徽省,1,安徽省六安市金寨县南溪镇南溪村
846,吴家店镇街道,115.578339,31.283199,吴家店镇街道,六安市,安徽省,1,安徽省六安市金寨县吴家店镇街道
847,姚冲村,115.645447,31.34622,姚冲村,六安市,安徽省,1,安徽省六安市金寨县果子园乡姚冲村
848,明逸城小区,115.879089,31.677179,明逸城小区,六安市,安徽省,1,安徽省六安市金寨县梅山镇明逸城小区
849,香港花园小区,115.940178,31.7222,香港花园小区,六安市,安徽省,1,安徽省六安市金寨县梅山镇香港花园小区
850,豹迹岩村,115.581108,31.64352,豹迹岩村,六安市,安徽省,1,安徽省六安市金寨县汤汇镇豹迹岩村
851,铁冲乡街道,115.681061,31.74375,铁冲乡街道,六安市,安徽省,1,安徽省六安市金寨县铁冲乡街道
852,,115.587952,31.609301,汤家汇镇,六安市,安徽省,9,安徽省六安市金寨县汤家汇镇
853,,115.499573,31.500561,关庙乡,六安市,安徽省,1,安徽省六安市金寨县关庙乡
854,玉泉社区惠民小区,116.280357,32.338051,玉泉社区惠民小区,六安市,安徽省,1,安徽省六安市霍邱县城关镇玉泉社区惠民小区
855,留城寺村老庄组,116.2192,32.181019,留城寺村老庄组,六安市,安徽省,1,安徽省六安市霍邱县宋店乡留城寺村老庄组
856,马圩村学田组,116.02655,32.07423,马圩村学田组,六安市,安徽省,1,安徽省六安市霍邱县开发区马圩村学田组
857,刘庙村北下组,116.029572,32.447578,刘庙村北下组,六安市,安徽省,1,安徽省六安市霍邱县范桥镇刘庙村北下组
858,新桥村岗头组,116.064636,32.384109,新桥村岗头组,六安市,安徽省,1,安徽省六安市霍邱县高塘镇新桥村岗头组
859,龙王庙村南楼组,115.952332,32.101681,龙王庙村南楼组,六安市,安徽省,1,安徽省六安市霍邱县龙潭镇龙王庙村南楼组
860,,115.994057,32.193272,龙潭镇,六安市,安徽省,1,安徽省六安市霍邱县龙潭镇
861,泰和天成,118.512253,31.655371,泰和天成,马鞍山市,安徽省,3,安徽省马鞍山市雨山区泰和天成
862,红旗花园,118.494743,31.696871,红旗花园,马鞍山市,安徽省,3,安徽省马鞍山市雨山区红旗花园
863,阳光城,118.593468,31.662146,阳光城,马鞍山市,安徽省,1,安徽省马鞍山市雨山区阳光城
864,,118.19442,31.571051,功桥镇,马鞍山市,安徽省,2,安徽省马鞍山市和县功桥镇
865,,118.308609,31.528959,白桥镇,马鞍山市,安徽省,10,安徽省马鞍山市和县白桥镇
866,,118.291496,31.76877,西埠镇,马鞍山市,安徽省,1,安徽省马鞍山市和县西埠镇
867,,118.325851,31.87038,香泉镇,马鞍山市,安徽省,1,安徽省马鞍山市和县香泉镇
868,,118.310677,31.660629,清佛村,马鞍山市,安徽省,1,安徽省马鞍山市和县历阳镇清佛村
869,,118.606033,31.307631,黄池镇,马鞍山市,安徽省,1,安徽省马鞍山市当涂县黄池镇
870,同济花园,118.515831,31.706181,同济花园,马鞍山市,安徽省,1,安徽省马鞍山市花山区同济花园
871,,115.519783,32.587383,孟寨村,阜阳市,安徽省,1,安徽省阜阳市阜南县公桥乡孟寨村
872,,115.523804,32.858318,张楼村,阜阳市,安徽省,1,安徽省阜阳市阜南县新村镇张楼村
873,,115.54969,32.89806,梁寨村,阜阳市,安徽省,1,安徽省阜阳市阜南县新村镇梁寨村
874,,115.579079,32.87743,白营村,阜阳市,安徽省,1,安徽省阜阳市阜南县新村镇白营村
875,,115.531929,32.867481,鑫东村,阜阳市,安徽省,1,安徽省阜阳市阜南县新村镇鑫东村
876,,115.926582,32.697578,闵庄村,阜阳市,安徽省,1,安徽省阜阳市阜南县朱寨镇闵庄村
877,,115.591187,32.812359,柴集村,阜阳市,安徽省,1,安徽省阜阳市阜南县柴集镇柴集村
878,,115.580994,32.45602,钐岗村,阜阳市,安徽省,1,安徽省阜阳市阜南县洪河桥镇钐岗村
879,,115.629539,32.43787,和谐村,阜阳市,安徽省,1,安徽省阜阳市阜南县王家坝镇和谐村
880,,115.552078,32.833351,五岳村,阜阳市,安徽省,1,安徽省阜阳市阜南县王店孜乡五岳村
881,,115.513718,32.80658,刘郢村,阜阳市,安徽省,1,安徽省阜阳市阜南县王店孜乡刘郢村
882,,115.504272,32.779041,周集村,阜阳市,安徽省,1,安徽省阜阳市阜南县王店孜乡周集村
883,,115.555656,32.822769,王寨村,阜阳市,安徽省,1,安徽省阜阳市阜南县王店孜乡王寨村
884,,115.568542,32.790199,高庄村,阜阳市,安徽省,1,安徽省阜阳市阜南县王店孜乡高庄村
885,中央豪景小区,115.630417,32.65876,中央豪景小区,阜阳市,安徽省,1,安徽省阜阳市阜南县经开区中央豪景小区
886,,115.660461,32.61784,桃园村,阜阳市,安徽省,1,安徽省阜阳市阜南县苗集镇桃园村
887,,115.532753,32.67741,刘大郢,阜阳市,安徽省,1,安徽省阜阳市阜南县赵集镇刘大郢
888,,115.5159,32.710091,刘集村,阜阳市,安徽省,1,安徽省阜阳市阜南县赵集镇刘集村
889,,115.864098,32.565868,刘店村,阜阳市,安徽省,1,安徽省阜阳市阜南县郜台乡刘店村
890,,115.525429,32.825878,王店孜高寨村,阜阳市,安徽省,1,安徽省阜阳市阜南县王店孜高寨村
891,,115.524788,32.858589,新村镇,阜阳市,安徽省,1,安徽省阜阳市阜南县新村镇
892,,115.633057,32.416828,王家坝镇,阜阳市,安徽省,1,安徽省阜阳市阜南县王家坝镇
893,和谐佳苑小区,115.855995,32.894554,和谐佳苑小区,阜阳市,安徽省,1,安徽省阜阳市颍东区东平社区和谐佳苑小区
894,,115.991203,32.886261,张庙村,阜阳市,安徽省,1,安徽省阜阳市颍东区正午镇张庙村
895,,115.96032,32.929428,横山村,阜阳市,安徽省,1,安徽省阜阳市颍东区正午镇横山村
896,,116.005653,32.921478,田楼村,阜阳市,安徽省,1,安徽省阜阳市颍东区正午镇田楼村
897,京九新村,115.857613,32.913589,京九新村,阜阳市,安徽省,1,安徽省阜阳市颍东区河东街道京九新村
898,,115.936699,32.844486,袁寨居委会,阜阳市,安徽省,1,安徽省阜阳市颍东区袁寨镇袁寨居委会
899,,115.893967,32.96003,新华街道,阜阳市,安徽省,1,安徽省阜阳市颍东区新华街道办事处新华街道
900,,115.696327,33.337399,名利集,阜阳市,安徽省,1,安徽省阜阳市太和县原墙镇名利集
901,太和世家,115.625381,33.166641,太和世家,阜阳市,安徽省,1,安徽省阜阳市太和县城关镇太和世家
902,锦都花园,115.617607,33.177559,锦都花园,阜阳市,安徽省,1,安徽省阜阳市太和县城关镇锦都花园
903,,115.464691,33.229099,孙楼行政村,阜阳市,安徽省,1,安徽省阜阳市太和县税镇镇孙楼行政村
904,税南居委会,115.481491,33.226871,税南居委会,阜阳市,安徽省,1,安徽省阜阳市太和县税镇镇税南居委会
905,聚鑫宾馆,115.623161,33.348808,聚鑫宾馆,阜阳市,安徽省,1,安徽省阜阳市太和县马集乡马集村聚鑫宾馆
906,,115.712532,32.832829,新宅村,阜阳市,安徽省,1,安徽省阜阳市颍州区三合镇新宅村
907,万达华府,115.818573,32.873211,万达华府,阜阳市,安徽省,1,安徽省阜阳市颍州区文峰街道办事处万达社区万达华府
908,碧桂园,115.817612,32.925404,碧桂园,阜阳市,安徽省,1,安徽省阜阳市颍州区文峰街道办事处三里岗社区碧桂园
909,博物馆巷,115.8256,32.89365,博物馆巷,阜阳市,安徽省,1,安徽省阜阳市颍州区文峰街道办事处奎星社区博物馆巷
910,西城御景小区,115.795372,32.901859,西城御景小区,阜阳市,安徽省,1,安徽省阜阳市颍州区颍西街道办事处西湖社区西城御景小区
911,马寨居委会,115.547997,32.926613,马寨居委会,阜阳市,安徽省,1,安徽省阜阳市颍州区马寨乡马寨居委会
912,汇鑫小区,115.801964,32.89959,汇鑫小区,阜阳市,安徽省,1,安徽省阜阳市颍州区鼓楼街道办事处双龙桥社区汇鑫小区
913,临泉路老师范学院院内,115.803192,32.89621,临泉路老师范学院院内,阜阳市,安徽省,1,安徽省阜阳市颍州区鼓楼街道办事处白衣桥社区临泉路老师范学院院内
914,锦华第一郡小区,115.810089,32.863739,锦华第一郡小区,阜阳市,安徽省,1,安徽省阜阳市颍州区清河街道办事处九里社区锦华第一郡小区
915,徽州家园小区,115.788559,32.90564,徽州家园小区,阜阳市,安徽省,1,安徽省阜阳市颍州区颍西街道办事处城郊社区徽州家园小区
916,九鼎华苑小区,115.815567,32.860729,九鼎华苑小区,阜阳市,安徽省,1,安徽省阜阳市颍州区清河街道办事处九里社区九鼎华苑小区
917,,115.88176,32.828289,三十里铺镇,阜阳市,安徽省,1,安徽省阜阳市颍州区三十里铺镇
918,,115.479111,32.77541,运河行政村,阜阳市,安徽省,1,安徽省阜阳市临泉县土陂乡运河行政村
919,,115.476303,32.799271,陈胡行政村,阜阳市,安徽省,1,安徽省阜阳市临泉县土陂乡陈胡行政村
920,姜子牙广场北,115.26416,33.058472,姜子牙广场北,阜阳市,安徽省,1,安徽省阜阳市临泉县城东街道姜子牙广场北
921,文王社区,115.265358,33.067463,文王社区,阜阳市,安徽省,1,安徽省阜阳市临泉县城东街道文王社区
922,天祥小区西,115.26738,33.057362,天祥小区西,阜阳市,安徽省,1,安徽省阜阳市临泉县城东街道港口路天祥小区西
923,老百货公司家属院,115.276657,33.062939,老百货公司家属院,阜阳市,安徽省,1,安徽省阜阳市临泉县城东街道老百货公司家属院
924,戴祖寺行政村,115.260643,33.067829,戴祖寺行政村,阜阳市,安徽省,1,安徽省阜阳市临泉县城关街道戴祖寺行政村
925,城关街道王关庙村,115.213127,33.066818,城关街道王关庙村,阜阳市,安徽省,1,安徽省阜阳市临泉县城关街道王关庙村
926,银泉社区,115.26239,33.07008,银泉社区,阜阳市,安徽省,1,安徽省阜阳市临泉县城关街道银泉社区
927,城南街道新城居委会,115.284668,33.046829,城南街道新城居委会,阜阳市,安徽省,1,安徽省阜阳市临泉县城南街道新城居委会
928,新城社区,115.270111,33.042404,新城社区,阜阳市,安徽省,1,安徽省阜阳市临泉县城南街道新城社区
929,紫薇苑小区,115.276657,33.062939,紫薇苑小区,阜阳市,安徽省,1,安徽省阜阳市临泉县城南街道紫薇苑小区
930,,114.995369,32.98259,姜寨村,阜阳市,安徽省,1,安徽省阜阳市临泉县姜寨镇姜寨村
931,铜锣湾服饰门面房二楼,115.281082,32.823555,铜锣湾服饰门面房二楼,阜阳市,安徽省,1,安徽省阜阳市临泉县宋集镇铜锣湾服饰门面房二楼
932,,115.341431,32.747238,朱集行政村,阜阳市,安徽省,1,安徽省阜阳市临泉县滑集镇朱集行政村
933,,115.390602,32.741852,滑集村,阜阳市,安徽省,1,安徽省阜阳市临泉县滑集镇滑集村
934,,115.150772,33.070499,姚集村,阜阳市,安徽省,1,安徽省阜阳市临泉县白庙镇姚集村
935,,115.091316,33.069729,油坊村,阜阳市,安徽省,1,安徽省阜阳市临泉县白庙镇油坊村
936,农商行家属楼,115.161034,32.920349,农商行家属楼,阜阳市,安徽省,1,安徽省阜阳市临泉县迎仙镇农商行家属楼
937,,115.289017,32.941391,大田行政村,阜阳市,安徽省,1,安徽省阜阳市临泉县长官镇大田行政村
938,,115.129829,32.97921,史寨行政村,阜阳市,安徽省,1,安徽省阜阳市临泉县韦寨镇史寨行政村
939,,115.37442,32.897282,牛刘行政村,阜阳市,安徽省,1,安徽省阜阳市临泉县高塘镇牛刘行政村
940,,115.03669,33.006699,流鞍行政村,阜阳市,安徽省,1,安徽省阜阳市临泉县鲖城镇流鞍行政村
941,,114.988701,33.071972,鲖阳居委会,阜阳市,安徽省,1,安徽省阜阳市临泉县鲖城镇鲖阳居委会
942,,115.152611,32.895538,郑寨行政村,阜阳市,安徽省,1,安徽省阜阳市临泉县迎仙镇郑寨行政村
943,名邦国际花都,115.280998,33.04184,名邦国际花都,阜阳市,安徽省,1,安徽省阜阳市临泉县城南街道名邦国际花都
944,,115.061478,33.06765,杨营行政村,阜阳市,安徽省,1,安徽省阜阳市临泉县鲖城镇杨营行政村
945,,115.285599,32.848751,杨蒲行政村,阜阳市,安徽省,1,安徽省阜阳市临泉县宋集镇杨蒲行政村
946,,115.398758,33.448589,赵大行政村赵寨村,阜阳市,安徽省,1,安徽省阜阳市界首市邴集乡赵大行政村赵寨村
947,依心明园,115.857208,32.866081,依心明园,阜阳市,安徽省,1,安徽省阜阳市开发区依心明园
948,十八里铺社区汽配城,115.863266,32.833385,十八里铺社区汽配城,阜阳市,安徽省,1,安徽省阜阳市开发区十八里铺社区汽配城
949,中泰名城小区,115.810028,32.923592,中泰名城小区,阜阳市,安徽省,1,安徽省阜阳市颍泉区中市街道办事处中泰名城小区
950,四中家属院,115.808884,32.944118,四中家属院,阜阳市,安徽省,1,安徽省阜阳市颍泉区中市街道办事处四中家属院
951,海亮上府小区,115.809036,32.930191,海亮上府小区,阜阳市,安徽省,1,安徽省阜阳市颍泉区中市街道办事处海亮上府小区
952,周棚居委会,115.852142,32.991619,周棚居委会,阜阳市,安徽省,1,安徽省阜阳市颍泉区周棚街道办事处周棚居委会
953,祥和居小区,115.794037,32.94722,祥和居小区,阜阳市,安徽省,1,安徽省阜阳市颍泉区泉颍办事处祥和居小区
954,,115.67382,33.0853,杨桥村,阜阳市,安徽省,1,安徽省阜阳市颍泉区行流镇杨桥村
955,,116.221336,32.509399,黄连沟村,阜阳市,安徽省,1,安徽省阜阳市颍上县半岗镇黄连沟村
956,,116.371078,32.644089,夏桥社区,阜阳市,安徽省,1,安徽省阜阳市颍上县夏桥镇夏桥社区
957,,116.15255,32.712742,建颍乡吴东村,阜阳市,安徽省,1,安徽省阜阳市颍上县建颍乡吴东村
958,,116.28772,32.622372,下元东村,阜阳市,安徽省,1,安徽省阜阳市颍上县慎城镇下元东村
959,,116.130707,32.74427,六联苏庄队,阜阳市,安徽省,1,安徽省阜阳市颍上县新集镇六联苏庄队
960,,116.17112,32.804211,王李村,阜阳市,安徽省,1,安徽省阜阳市颍上县江口镇王李村
961,,116.2528,32.783642,余联村李圩队,阜阳市,安徽省,1,安徽省阜阳市颍上县古城镇余联村李圩队
962,一库安置区,116.260368,32.6432,一库安置区,阜阳市,安徽省,1,安徽省阜阳市颍上县慎城镇一库安置区
963,,116.260368,32.6432,慎城镇,阜阳市,安徽省,1,安徽省阜阳市颍上县慎城镇
964,,116.318779,34.349609,汤寺村,宿州市,安徽省,4,安徽省宿州市砀山县关帝庙镇汤寺村
965,北关丽都明珠小区,116.358315,34.440346,北关丽都明珠小区,宿州市,安徽省,1,安徽省宿州市砀山县北关丽都明珠小区
966,上海花苑小区,116.345627,34.426968,上海花苑小区,宿州市,安徽省,1,安徽省宿州市砀山县砀城镇上海花苑小区
967,凯旋门小区,116.948631,33.643349,凯旋门小区,宿州市,安徽省,1,安徽省宿州市埇桥区三八街道凯旋门小区
968,凯旋门小区,116.949554,33.617508,凯旋门小区,宿州市,安徽省,1,安徽省宿州市埇桥区凯旋门小区
969,华林苑小区,116.968552,33.610802,华林苑小区,宿州市,安徽省,1,安徽省宿州市埇桥区华林苑小区
970,,117.057442,33.342941,大圩子村,宿州市,安徽省,1,安徽省宿州市埇桥区永镇乡大圩子村
971,,117.057442,33.342941,大圩村,宿州市,安徽省,1,安徽省宿州市埇桥区永镇乡大圩村
972,马梨园村,117.012032,33.720112,马梨园村,宿州市,安徽省,2,安徽省宿州市埇桥区汴河街道马梨园村
973,,117.859001,33.570301,彭鲍村,宿州市,安徽省,1,安徽省宿州市泗县屏山镇彭鲍村
974,三湾社区,117.863083,33.469852,三湾社区,宿州市,安徽省,1,安徽省宿州市泗县泗城镇三湾社区
975,荣辉国际花园,117.870056,33.478237,荣辉国际花园,宿州市,安徽省,3,安徽省宿州市泗县荣辉国际花园
976,,117.702042,33.761822,大庙乡,宿州市,安徽省,2,安徽省宿州市灵璧县大庙乡
977,,117.57943,33.857651,跃楼村,宿州市,安徽省,2,安徽省宿州市灵璧县渔沟镇跃楼村
978,,117.704681,33.829632,高楼镇,宿州市,安徽省,1,安徽省宿州市灵璧县高楼镇
979,,117.468674,33.417889,黄湾镇,宿州市,安徽省,1,安徽省宿州市灵璧县黄湾镇
980,沱河路交通局家属楼,116.762787,33.914776,沱河路交通局家属楼,淮北市,安徽省,1,安徽省淮北市濉溪县沱河路交通局家属楼
981,菱建小区,117.066719,30.53948,菱建小区,安庆市,安徽省,1,安徽省安庆市经开区菱北街道菱建小区
982,香樟里小区,117.060242,30.53582,香樟里小区,安庆市,安徽省,1,安徽省安庆市经开区菱北街道香樟里小区
983,景湖嘉苑小区,117.073341,30.53089,景湖嘉苑小区,安庆市,安徽省,2,安徽省安庆市经开区景湖嘉苑小区
984,御景国际小区,117.053482,30.51236,御景国际小区,安庆市,安徽省,1,安徽省安庆市迎江区华中路街道御景国际小区
985,碧桂园1号公园小区,117.043861,30.507849,碧桂园1号公园小区,安庆市,安徽省,1,安徽省安庆市迎江区滨江街道碧桂园1号公园小区
986,碧桂园1号公园小区,117.043861,30.507849,碧桂园1号公园小区,安庆市,安徽省,1,安徽省安庆市迎江区碧桂园1号公园小区
987,计渡村石闸三组,116.715263,30.08602,计渡村石闸三组,安庆市,安徽省,1,安徽省安庆市望江县华阳镇计渡村石闸三组
988,兴龙村,116.787109,30.351545,兴龙村,安庆市,安徽省,1,安徽省安庆市望江县赛口镇兴龙村
989,后埠村同东屋,116.588409,30.237921,后埠村同东屋,安庆市,安徽省,1,安徽省安庆市望江县长岭镇后埠村同东屋
990,,116.91217,30.29463,沟口村先进组,安庆市,安徽省,1,安徽省安庆市望江县雷池乡沟口村先进组
991,百华村何洼组,117.008202,30.626539,百华村何洼组,安庆市,安徽省,1,安徽省安庆市宜秀区大龙山镇百华村何洼组
992,大枫村大塘组,117.125908,30.612429,大枫村大塘组,安庆市,安徽省,1,安徽省安庆市宜秀区白泽湖乡大枫村大塘组
993,水岸江南B区,116.584976,30.636589,水岸江南B区,安庆市,安徽省,1,安徽省安庆市潜山市梅城镇水岸江南B区
994,田墩新村,116.680588,30.89422,田墩新村,安庆市,安徽省,1,安徽省安庆市潜山市源潭镇田墩新村
995,双湖村庙兴组,116.940315,30.733,双湖村庙兴组,安庆市,安徽省,1,安徽省安庆市怀宁县凉亭乡双湖村庙兴组
996,双湖村珠林组,116.931808,30.74357,双湖村珠林组,安庆市,安徽省,1,安徽省安庆市怀宁县凉亭乡双湖村珠林组
997,鹿苑村双桂组,116.736473,30.73918,鹿苑村双桂组,安庆市,安徽省,1,安徽省安庆市怀宁县马庙镇鹿苑村双桂组
998,高楼村团结组,116.774071,30.61282,高楼村团结组,安庆市,安徽省,1,安徽省安庆市怀宁县黄墩镇高楼村团结组
999,黄梅阁小区,116.829933,30.72366,黄梅阁小区,安庆市,安徽省,1,安徽省安庆市怀宁县高河镇黄梅阁小区
1000,广丰村新建组,116.70359,30.403151,广丰村新建组,安庆市,安徽省,4,安徽省安庆市怀宁县石牌镇广丰村新建组
1001,胜天组,116.652206,30.4627,胜天组,安庆市,安徽省,1,安徽省安庆市怀宁县平山镇鸣凤村胜天组
1002,广丰村中心组,116.70359,30.403151,广丰村中心组,安庆市,安徽省,2,安徽省安庆市怀宁县石牌镇广丰村中心组
1003,双港镇民畈村新民组,116.971893,30.783581,双港镇民畈村新民组,安庆市,安徽省,1,安徽省安庆市桐城市双港镇双港镇民畈村新民组
1004,潘赛村西瓜组,116.998283,30.80192,潘赛村西瓜组,安庆市,安徽省,1,安徽省安庆市桐城市双港镇潘赛村西瓜组
1005,公园社区粮食局宿舍,116.952034,31.054087,公园社区粮食局宿舍,安庆市,安徽省,1,安徽省安庆市桐城市文昌街道公园社区粮食局宿舍
1006,石河村大隔组,116.946793,31.030359,石河村大隔组,安庆市,安徽省,1,安徽省安庆市桐城市文昌街道石河村大隔组
1007,双墩村合胜组,116.845917,30.817221,双墩村合胜组,安庆市,安徽省,1,安徽省安庆市桐城市新渡镇双墩村合胜组
1008,罗潭村罗潭组,116.889099,30.849789,罗潭村罗潭组,安庆市,安徽省,1,安徽省安庆市桐城市新渡镇罗潭村罗潭组
1009,棋盘岭村张老屋队,116.908012,30.939409,棋盘岭村张老屋队,安庆市,安徽省,1,安徽省安庆市桐城市范岗镇棋盘岭村张老屋队
1010,碧桂园小区,116.972771,31.06056,碧桂园小区,安庆市,安徽省,1,安徽省安庆市桐城市龙眠街道碧桂园小区
1011,长生社区三隔组,116.972771,31.06056,长生社区三隔组,安庆市,安徽省,1,安徽省安庆市桐城市龙眠街道长生社区三隔组
1012,阅城国际小区,116.965897,31.044289,阅城国际小区,安庆市,安徽省,1,安徽省安庆市桐城市龙眠街道阅城国际小区
1013,黄燕村横排组,116.888329,31.104891,黄燕村横排组,安庆市,安徽省,1,安徽省安庆市桐城市龙眠街道黄燕村横排组
1014,新民组,116.971893,30.783581,新民组,安庆市,安徽省,1,安徽省安庆市桐城市双港镇民畈村新民组
1015,程西组,116.892921,30.92424,程西组,安庆市,安徽省,1,安徽省安庆市桐城市新渡镇永久村程西组
1016,银杏花园小区,116.943764,30.819349,银杏花园小区,安庆市,安徽省,1,安徽省安庆市桐城市银杏花园小区
1017,环湖村桂咀组,116.102631,29.994511,环湖村桂咀组,安庆市,安徽省,1,安徽省安庆市宿松县佐坝乡环湖村桂咀组
1018,碧岭村徐岭组,116.104149,30.110281,碧岭村徐岭组,安庆市,安徽省,1,安徽省安庆市宿松县佐坝乡碧岭村徐岭组
1019,马厂村曹湾组,115.952881,30.381269,马厂村曹湾组,安庆市,安徽省,1,安徽省安庆市宿松县北浴乡马厂村曹湾组
1020,套口村五社组,116.536499,29.906719,套口村五社组,安庆市,安徽省,1,安徽省安庆市宿松县复兴镇套口村五社组
1021,光明社区棉麻新居小区,116.117973,30.164869,光明社区棉麻新居小区,安庆市,安徽省,1,安徽省安庆市宿松县孚玉镇光明社区棉麻新居小区
1022,团结村新埂组,116.269852,29.864571,团结村新埂组,安庆市,安徽省,1,安徽省安庆市宿松县汇口镇团结村新埂组
1023,雪镇村阳田组,116.170883,30.226471,雪镇村阳田组,安庆市,安徽省,1,安徽省安庆市宿松县破凉镇雪镇村阳田组
1024,马塘村余西组,116.184357,30.179251,马塘村余西组,安庆市,安徽省,1,安徽省安庆市宿松县长铺镇马塘村余西组
1025,梨园新村小区,116.126556,30.153099,梨园新村小区,安庆市,安徽省,1,安徽省安庆市宿松县孚玉镇梨园新村小区
1026,琥珀村琥珀组,115.911377,30.739679,琥珀村琥珀组,安庆市,安徽省,1,安徽省安庆市岳西县冶溪镇琥珀村琥珀组
1027,下坊村宁畈组,115.944267,30.87841,下坊村宁畈组,安庆市,安徽省,1,安徽省安庆市岳西县古坊乡下坊村宁畈组
1028,城东社区小城宝邸小区,116.37159,30.85018,城东社区小城宝邸小区,安庆市,安徽省,1,安徽省安庆市岳西县天堂镇城东社区小城宝邸小区
1029,阳光小区,116.369392,30.84519,阳光小区,安庆市,安徽省,1,安徽省安庆市岳西县天堂镇阳光小区
1030,店前村李屋组,116.01458,30.72666,店前村李屋组,安庆市,安徽省,1,安徽省安庆市岳西县店前镇店前村李屋组
1031,皖源村河湾组,115.988853,30.91498,皖源村河湾组,安庆市,安徽省,1,安徽省安庆市岳西县河图镇皖源村河湾组
1032,余河村粮油组,115.914558,30.812019,余河村粮油组,安庆市,安徽省,1,安徽省安庆市岳西县白帽镇余河村粮油组
1033,桥头组,116.429749,30.513041,桥头组,安庆市,安徽省,2,安徽省安庆市太湖县小池镇中心村桥头组
1034,金鸡村蔡榜组,116.398758,30.429199,金鸡村蔡榜组,安庆市,安徽省,1,安徽省安庆市太湖县新仓镇金鸡村蔡榜组
1035,天高财富广场,116.323341,30.4454,天高财富广场,安庆市,安徽省,1,安徽省安庆市太湖县晋熙镇天高财富广场
1036,二监宿舍小区,117.03791,30.511669,二监宿舍小区,安庆市,安徽省,2,安徽省安庆市大观区关岳庙街二监宿舍小区
1037,,108.094551,26.69367,南江村,黔东南苗族侗族自治州,贵州省,1,贵州省黔东南苗族侗族自治州凯里市凯棠镇南江村
1038,,107.973099,26.583229,城西街道,黔东南苗族侗族自治州,贵州省,2,贵州省黔东南苗族侗族自治州凯里市城西街道
1039,,108.900078,26.620461,救民村,黔东南苗族侗族自治州,贵州省,1,贵州省黔东南苗族侗族自治州锦屏县彦洞乡救民村
1040,,109.298958,26.969851,岩门村,黔东南苗族侗族自治州,贵州省,1,贵州省黔东南苗族侗族自治州天柱县渡马乡岩门村
1041,,109.448792,26.96892,白市镇,黔东南苗族侗族自治州,贵州省,1,贵州省黔东南苗族侗族自治州天柱县白市镇
1042,,105.680428,26.00915,黄果树镇,安顺市,贵州省,1,贵州省安顺市黄果树旅游区黄果树镇
1043,,105.798698,26.21093,余官村,安顺市,贵州省,1,贵州省安顺市普定县马官镇余官村
1044,,106.06144,27.694679,九仓镇,遵义市,贵州省,1,贵州省遵义市仁怀市九仓镇
1045,第四中学旁,107.707428,27.95013,第四中学旁,遵义市,贵州省,1,贵州省遵义市凤冈县龙泉镇第四中学旁
1046,,107.712677,28.933941,民星村,遵义市,贵州省,1,贵州省遵义市道真县忠信镇民星村
1047,迎江一号,107.608543,28.863443,迎江一号,遵义市,贵州省,2,贵州省遵义市道真县玉溪镇新城社区迎江一号
1048,,107.603043,28.877069,永城社区,遵义市,贵州省,1,贵州省遵义市道真县玉溪镇永城社区
1049,,107.608543,28.863443,新城社区,遵义市,贵州省,3,贵州省遵义市道真县玉溪镇新城社区
1050,新田坝社区,107.578346,28.80954,新田坝社区,遵义市,贵州省,1,贵州省遵义市道真县上坝乡新田坝社区
1051,阳光家苑,107.608337,28.866631,阳光家苑,遵义市,贵州省,2,贵州省遵义市道真县玉溪镇阳光家苑
1052,九节滩政府某小区,106.929611,27.72533,九节滩政府某小区,遵义市,贵州省,2,贵州省遵义市汇川区人民路九节滩政府某小区
1053,龙华山水小区,106.91777,27.7047,龙华山水小区,遵义市,贵州省,1,贵州省遵义市汇川区上海路龙华山水小区
1054,,107.196548,28.45689,东山村,遵义市,贵州省,1,贵州省遵义市正安县小雅镇东山村
1055,,106.34758,26.99025,百花村,毕节市,贵州省,7,贵州省毕节市黔西县素朴镇百花村
1056,,105.04155,27.19664,撒拉溪镇,毕节市,贵州省,1,贵州省毕节市七星关区撒拉溪镇
1057,,105.493698,26.50049,大桥村转坡组,毕节市,贵州省,1,贵州省毕节市织金县阿弓镇大桥村转坡组
1058,,104.561867,26.965281,妈姑镇,毕节市,贵州省,1,贵州省毕节市赫章县妈姑镇
1059,,104.69265,27.10656,白果街道,毕节市,贵州省,1,贵州省毕节市赫章县白果街道
1060,,105.472198,26.832529,乐治镇,毕节市,贵州省,2,贵州省毕节市纳雍县乐治镇
1061,,105.608391,27.143,红旗街道,毕节市,贵州省,1,贵州省毕节市大方县红旗街道
1062,,105.589417,27.156038,顺德街道,毕节市,贵州省,1,贵州省毕节市大方县顺德街道
1063,优山美诗小区,106.735283,26.590981,优山美诗小区,贵阳市,贵州省,1,贵州省贵阳市云岩区优山美诗小区
1064,未来方舟G1组团,106.757851,26.60062,未来方舟G1组团,贵阳市,贵州省,2,贵州省贵阳市云岩区未来方舟G1组团
1065,军阅国际酒店,106.607201,26.61182,军阅国际酒店,贵阳市,贵州省,2,贵州省贵阳市观山湖区军阅国际酒店
1066,奥林花园,106.612038,26.61207,奥林花园,贵阳市,贵州省,1,贵州省贵阳市观山湖区奥林花园
1067,金元国际,106.626793,26.63822,金元国际,贵阳市,贵州省,1,贵州省贵阳市观山湖区碧海社区金元国际
1068,太慈社区,106.682739,26.55377,太慈社区,贵阳市,贵州省,2,贵州省贵阳市南明区太慈社区
1069,花果社区,106.688072,26.564131,花果社区,贵阳市,贵州省,2,贵州省贵阳市南明区花果社区
1070,太慈桥兆基新王府,106.687508,26.557203,太慈桥兆基新王府,贵阳市,贵州省,3,贵州省贵阳市南明区太慈桥兆基新王府
1071,花果园K区,106.67944,26.55568,花果园K区,贵阳市,贵州省,1,贵州省贵阳市南明区花果园K区
1072,,106.70817,26.56003,解放路356号,贵阳市,贵州省,1,贵州省贵阳市南明区解放路356号
1073,万科大都会,106.712738,26.52128,万科大都会,贵阳市,贵州省,4,贵州省贵阳市花溪区瑞华社区万科大都会
1074,,106.688873,26.34,北街村,贵阳市,贵州省,1,贵州省贵阳市花溪区青岩镇北街村
1075,,106.530403,26.934429,小箐镇,贵阳市,贵州省,2,贵州省贵阳市修文县小箐镇
1076,阀门厂,106.651833,26.674681,阀门厂,贵阳市,贵州省,1,贵州省贵阳市白云区云城街道阀门厂
1077,,109.179024,27.72212,河西街道,铜仁市,贵州省,1,贵州省铜仁市碧江区河西街道
1078,,107.864197,27.45702,葛商屯村,铜仁市,贵州省,1,贵州省铜仁市石阡县本庄镇葛商屯村
1079,,109.058884,27.410721,金竹村,铜仁市,贵州省,1,贵州省铜仁市玉屏县田坪镇金竹村
1080,,108.713661,27.657379,鱼良溪村,铜仁市,贵州省,1,贵州省铜仁市江口县闵孝镇鱼良溪村
1081,派华新都,104.908737,26.56284,派华新都,六盘水市,贵州省,1,贵州省六盘水市钟山区凤凰社区派华新都
1082,伯爵花园,107.518028,26.27714,伯爵花园,黔南布依族苗族自治州,贵州省,1,贵州省黔南布依族苗族自治州都匀市沙包堡街道伯爵花园
1083,威远社区新坝村,106.5019,26.01623,威远社区新坝村,黔南布依族苗族自治州,贵州省,1,贵州省黔南州长顺县长寨街道威远社区新坝村
1084,,107.080078,26.21851,云雾镇,黔南布依族苗族自治州,贵州省,1,贵州省黔南布依族苗族自治州贵定县云雾镇
1085,锦江华府,107.236832,26.58148,锦江华府,黔南布依族苗族自治州,贵州省,1,贵州省黔南布依族苗族自治州贵定县金南街道庆熙社区锦江华府
1086,,105.002922,25.156481,顶效街道,黔西南布依族苗族自治州,贵州省,1,贵州省黔西南布依族苗族自治州义龙新区顶效街道
1087,,105.002678,25.15942,顶效镇,黔西南布依族苗族自治州,贵州省,1,贵州省黔西南布依族苗族自治州义龙新区顶效镇
1088,,105.369232,25.73991,杨柳井村,黔西南布依族苗族自治州,贵州省,1,贵州省黔西南布依族苗族自治州兴仁市波阳镇杨柳井村
1089,建胜路,114.502274,38.020016,建胜路,石家庄市,河北省,1,河北省石家庄市桥西区建胜路
1090,新华西路,114.470108,38.048031,新华西路,石家庄市,河北省,1,河北省石家庄市桥西区新华西路
1091,南壕堑镇,113.989937,41.087608,南壕堑镇,张家口市,河北省,1,河北省张家口市尚义县南壕堑镇
1092,美居丽景小区,114.866737,40.822315,美居丽景小区,张家口市,河北省,2,河北省张家口市桥西区美居丽景小区
1093,,116.246834,38.275051,十五级乡西杨村,沧州市,河北省,2,河北省沧州市献县十五级乡西杨村
1094,,116.218178,38.14822,梭庄村,沧州市,河北省,1,河北省沧州市献县河街镇梭庄村
1095,东兴路11巷,116.712944,23.400728,东兴路11巷,汕头市,广东省,1,广东省汕头市金平区东兴路11巷
1096,中信怀英花园,116.720123,23.390551,中信怀英花园,汕头市,广东省,1,广东省汕头市金平区中信怀英花园
1097,,116.483658,23.17078,简朴村,汕头市,广东省,1,广东省汕头市潮南区成田镇简朴村
1098,,116.530571,23.15394,南埔村,汕头市,广东省,1,广东省汕头市潮南区陇田镇南埔村
1099,,116.451202,23.476021,下底村,汕头市,广东省,2,广东省汕头市潮阳区关埠镇下底村
1100,蓝海豪景,117.033646,23.410559,蓝海豪景,汕头市,广东省,1,广东省汕头市南澳县蓝海豪景
1101,,117.058289,23.468861,走马埔村,汕头市,广东省,2,广东省汕头市南澳县深澳镇走马埔村
1102,龙腾熙园,116.736977,23.40081,龙腾熙园,汕头市,广东省,1,广东省汕头市龙湖区龙腾熙园
1103,陈厝寨华兴园,116.714493,23.437351,陈厝寨华兴园,汕头市,广东省,1,广东省汕头市龙湖区鸥汀街道陈厝寨华兴园
1104,御庭山庄,112.090759,24.56403,御庭山庄,清远市,广东省,1,广东省清远市连山壮族瑶族自治县吉田镇御庭山庄
1105,田心村委会雷冲村,112.137238,24.269909,田心村委会雷冲村,清远市,广东省,1,广东省清远市连山壮族瑶族自治县小三江镇田心村委会雷冲村
1106,银座超市,113.53172,23.87921,银座超市,清远市,广东省,1,广东省清远市佛冈县银座超市
1107,青塘建新村委会陈屋村,113.808578,24.15951,青塘建新村委会陈屋村,清远市,广东省,1,广东省清远市英德市青塘建新村委会陈屋村
1108,青塘集贸市场,113.852638,24.207741,青塘集贸市场,清远市,广东省,1,广东省清远市英德市青塘集贸市场
1109,海逸华庭,113.046013,23.70418,海逸华庭,清远市,广东省,1,广东省清远市清城区东城街海逸华庭
1110,凤城世家,113.059212,23.680201,凤城世家,清远市,广东省,1,广东省清远市清城区凤城世家
1111,佳利乐包装有限公司宿舍区,113.214104,23.65653,佳利乐包装有限公司宿舍区,清远市,广东省,1,广东省清远市清城区源潭镇佳利乐包装有限公司宿舍区
1112,美林湖天汇半岛,113.055168,23.50738,美林湖天汇半岛,清远市,广东省,1,广东省清远市清城区石角镇美林湖天汇半岛
1113,城南海逸华庭,112.633476,24.475651,城南海逸华庭,清远市,广东省,1,广东省清远市阳山县城南海逸华庭
1114,万科金域缇香,114.341583,22.7078,万科金域缇香,深圳市,广东省,1,广东省深圳市坪山区坪山街道万科金域缇香
1115,易林源酒店,114.346321,22.69084,易林源酒店,深圳市,广东省,1,广东省深圳市坪山区坪山街道易林源酒店
1116,东城大厦维也纳酒店,114.394333,22.71496,东城大厦维也纳酒店,深圳市,广东省,1,广东省深圳市坪山区龙田街道东城大厦维也纳酒店
1117,金茂园酒店,114.356522,22.700554,金茂园酒店,深圳市,广东省,1,广东省深圳市坪山区龙田街道金茂园酒店
1118,东纵路6-3号,114.37582,22.68891,东纵路6-3号,深圳市,广东省,1,广东省深圳市坪山区东纵路6-3号
1119,东方丽园,114.315521,22.667549,东方丽园,深圳市,广东省,1,广东省深圳市坪山区汤坑社区东方丽园
1120,沙头角街道上东湾,114.228935,22.549728,沙头角街道上东湾,深圳市,广东省,1,广东省深圳市盐田区沙头角街道上东湾
1121,京基洲际度假酒店,114.314705,22.597609,京基洲际度假酒店,深圳市,广东省,1,广东省深圳市盐田区京基洲际度假酒店
1122,东海丽景花园,114.25853,22.59,东海丽景花园,深圳市,广东省,1,广东省深圳市盐田区东海丽景花园
1123,万象新天2期,113.850861,22.603428,万象新天2期,深圳市,广东省,1,广东省深圳市宝安区万象新天2期
1124,前海铂寓,113.862267,22.554941,前海铂寓,深圳市,广东省,1,广东省深圳市宝安区前海铂寓
1125,宏发世纪城,113.94603,22.67898,宏发世纪城,深圳市,广东省,1,广东省深圳市宝安区宏发世纪城
1126,卡罗社区,113.88855,22.56165,卡罗社区,深圳市,广东省,1,广东省深圳市宝安区宝安大道与裕安一路交汇处卡罗社区
1127,新安街道35小区安乐花园,113.898033,22.58168,新安街道35小区安乐花园,深圳市,广东省,1,广东省深圳市宝安区新安街道35小区安乐花园
1128,新安街道甲岸村,113.904121,22.56167,新安街道甲岸村,深圳市,广东省,1,广东省深圳市宝安区新安街道甲岸村
1129,星曜名城B栋,113.921227,22.692051,星曜名城B栋,深圳市,广东省,1,广东省深圳市宝安区星曜名城B栋
1130,碧头社区华都公寓,113.813004,22.782248,碧头社区华都公寓,深圳市,广东省,1,广东省深圳市宝安区松岗街道碧头社区华都公寓
1131,桃源居,113.86441,22.614513,桃源居,深圳市,广东省,1,广东省深圳市宝安区桃源居
1132,泰华商业城,113.904106,22.568226,泰华商业城,深圳市,广东省,1,广东省深圳市宝安区泰华商业城
1133,满京华云著花园,113.832664,22.784412,满京华云著花园,深圳市,广东省,1,广东省深圳市宝安区满京华云著花园
1134,石岩街道伊隆达工业园,113.942085,22.693546,石岩街道伊隆达工业园,深圳市,广东省,1,广东省深圳市宝安区石岩街道伊隆达工业园
1135,福永街道星航华府,113.83242,22.64348,福永街道星航华府,深圳市,广东省,1,广东省深圳市宝安区福永街道星航华府
1136,航城街道南航明珠花园,113.842323,22.60577,航城街道南航明珠花园,深圳市,广东省,1,广东省深圳市宝安区航城街道南航明珠花园
1137,蚝二佳仕泰科技园宿舍,113.784256,22.703049,蚝二佳仕泰科技园宿舍,深圳市,广东省,1,广东省深圳市宝安区塘尾社区蚝二佳仕泰科技园宿舍
1138,松茂·御龙湾,113.853287,22.573915,松茂·御龙湾,深圳市,广东省,1,广东省深圳市宝安区松茂·御龙湾
1139,海华社区自由北小区,113.882988,22.56814,海华社区自由北小区,深圳市,广东省,1,广东省深圳市宝安区海华社区自由北小区
1140,深航幸福花园,113.811974,22.69924,深航幸福花园,深圳市,广东省,1,广东省深圳市宝安区深航幸福花园
1141,,113.909149,22.565241,新安街道,深圳市,广东省,1,广东省深圳市宝安区灵芝新村新安街道
1142,我们家公寓（海湾家2号楼）,113.85955,22.579699,我们家公寓（海湾家2号楼）,深圳市,广东省,1,广东省深圳市宝安区西乡街道我们家公寓（海湾家2号楼）
1143,花样年花郡,113.88235,22.56447,花样年花郡,深圳市,广东省,1,广东省深圳市宝安区明玉路11号花样年花郡
1144,荣泰园,113.823189,22.724609,荣泰园,深圳市,广东省,1,广东省深圳市宝安区荣泰园
1145,一尚领航优品酒店,113.848424,22.609118,一尚领航优品酒店,深圳市,广东省,1,广东省深圳市宝安区一尚领航优品酒店
1146,松新石岗大楼,113.840485,22.766611,松新石岗大楼,深圳市,广东省,1,广东省深圳市宝安区松新石岗大楼
1147,福中福幸福海岸,113.878502,22.559731,福中福幸福海岸,深圳市,广东省,1,广东省深圳市宝安区福中福幸福海岸
1148,鸿景园,113.890671,22.5744,鸿景园,深圳市,广东省,1,广东省深圳市宝安区鸿景园
1149,怀德公元,113.827477,22.669621,怀德公元,深圳市,广东省,1,广东省深圳市宝安区怀德公元
1150,永丰社区六区,113.86689,22.57254,永丰社区六区,深圳市,广东省,1,广东省深圳市宝安区永丰社区六区
1151,金港华庭,113.86132,22.582241,金港华庭,深圳市,广东省,1,广东省深圳市宝安区金港华庭
1152,丽枫酒店（深圳海雅缤纷城店）,113.906097,22.55979,丽枫酒店（深圳海雅缤纷城店）,深圳市,广东省,1,广东省深圳市宝安区丽枫酒店（深圳海雅缤纷城店）
1153,红星村温屋,113.836357,22.766277,红星村温屋,深圳市,广东省,1,广东省深圳市宝安区松岗街道红星村温屋
1154,金泓凯旋城,113.897789,22.548281,金泓凯旋城,深圳市,广东省,1,广东省深圳市宝安区金泓凯旋城
1155,上头田新村,113.846001,22.758715,上头田新村,深圳市,广东省,1,广东省深圳市宝安区东方社区上头田新村
1156,中兴路88号汉庭酒店,114.12633,22.54982,中兴路88号汉庭酒店,深圳市,广东省,1,广东省深圳市罗湖区中兴路88号汉庭酒店
1157,田贝二路金翠园,114.128792,22.561022,田贝二路金翠园,深圳市,广东省,1,广东省深圳市罗湖区田贝二路金翠园
1158,红桂一街50号环保大院,114.10555,22.54927,红桂一街50号环保大院,深圳市,广东省,1,广东省深圳市罗湖区红桂路红桂一街50号环保大院
1159,罗湖村五坊,114.121292,22.535784,罗湖村五坊,深圳市,广东省,1,广东省深圳市罗湖区罗湖村五坊
1160,长城大酒店,114.106819,22.550144,长城大酒店,深圳市,广东省,1,广东省深圳市罗湖区长城大酒店
1161,合正荣悦府,114.129761,22.552769,合正荣悦府,深圳市,广东省,1,广东省深圳市罗湖区合正荣悦府
1162,大望社区新田村,114.175491,22.59881,大望社区新田村,深圳市,广东省,1,广东省深圳市罗湖区大望社区新田村
1163,梧桐山社区赤水洞村,114.187889,22.59038,梧桐山社区赤水洞村,深圳市,广东省,1,广东省深圳市罗湖区梧桐山社区赤水洞村
1164,自来水公司大院,114.101692,22.567425,自来水公司大院,深圳市,广东省,1,广东省深圳市罗湖区泥岗西路自来水公司大院
1165,百仕达花园5期,114.142075,22.567587,百仕达花园5期,深圳市,广东省,1,广东省深圳市罗湖区百仕达花园5期
1166,翠华花园,114.132393,22.555679,翠华花园,深圳市,广东省,1,广东省深圳市罗湖区翠华花园
1167,海鹰大厦,114.137802,22.581209,海鹰大厦,深圳市,广东省,1,广东省深圳市罗湖区海鹰大厦
1168,鸿翔花园,114.106598,22.553869,鸿翔花园,深圳市,广东省,1,广东省深圳市罗湖区鸿翔花园
1169,东方颐园,114.126373,22.549641,东方颐园,深圳市,广东省,1,广东省深圳市罗湖区东方颐园
1170,天景花园,114.141357,22.5599,天景花园,深圳市,广东省,1,广东省深圳市罗湖区天景花园
1171,松园北街38号大院,114.10754,22.55362,松园北街38号大院,深圳市,广东省,1,广东省深圳市罗湖区松园北街38号大院
1172,海陇华苑,114.13253,22.546856,海陇华苑,深圳市,广东省,1,广东省深圳市罗湖区海陇华苑
1173,嘉宝田花园,114.11116,22.55805,嘉宝田花园,深圳市,广东省,1,广东省深圳市罗湖区嘉宝田花园
1174,南庄合众豪庭后面三巷,113.907867,22.773359,南庄合众豪庭后面三巷,深圳市,广东省,1,广东省深圳市光明区公明街道振明路南庄合众豪庭后面三巷
1175,宏发上域,113.907127,22.781679,宏发上域,深圳市,广东省,1,广东省深圳市光明区宏发上域
1176,新陂头村新美一村,113.952362,22.796671,新陂头村新美一村,深圳市,广东省,1,广东省深圳市光明区新陂头村新美一村
1177,福南路华业苑,113.874718,22.779659,福南路华业苑,深圳市,广东省,1,广东省深圳市光明区薯田埔村福南路华业苑
1178,传麒山,113.942863,22.74365,传麒山,深圳市,广东省,1,广东省深圳市光明区传麒山
1179,横岭新村,113.883728,22.778328,横岭新村,深圳市,广东省,1,广东省深圳市光明区横岭新村
1180,玉律村一区,113.890236,22.715294,玉律村一区,深圳市,广东省,1,广东省深圳市光明区玉律村一区
1181,中洲万豪酒店,113.933273,22.517429,中洲万豪酒店,深圳市,广东省,1,广东省深圳市南山区中洲万豪酒店
1182,丽山路西湖林语,113.96534,22.59273,丽山路西湖林语,深圳市,广东省,1,广东省深圳市南山区丽山路西湖林语
1183,佳兆业前海广场,113.886284,22.494535,佳兆业前海广场,深圳市,广东省,1,广东省深圳市南山区佳兆业前海广场
1184,半岛城邦,113.933495,22.480164,半岛城邦,深圳市,广东省,1,广东省深圳市南山区半岛城邦
1185,华侨城香山美墅,113.969803,22.550728,华侨城香山美墅,深圳市,广东省,1,广东省深圳市南山区华侨城香山美墅
1186,南头街道麒麟花园,113.93055,22.544729,南头街道麒麟花园,深圳市,广东省,1,广东省深圳市南山区南头街道麒麟花园
1187,南山街道友邻公寓,113.929703,22.531321,南山街道友邻公寓,深圳市,广东省,1,广东省深圳市南山区南山街道友邻公寓
1188,南山街道学府花园,113.92627,22.525787,南山街道学府花园,深圳市,广东省,1,广东省深圳市南山区南山街道学府花园
1189,南山街道现代城华庭,113.924423,22.517061,南山街道现代城华庭,深圳市,广东省,1,广东省深圳市南山区南山街道现代城华庭
1190,南山街道阳光棕榈园,113.913742,22.526039,南山街道阳光棕榈园,深圳市,广东省,1,广东省深圳市南山区南山街道阳光棕榈园
1191,后海雅园,113.93605,22.493521,后海雅园,深圳市,广东省,1,广东省深圳市南山区后海雅园
1192,大冲宿禾服务式公寓,113.95211,22.541685,大冲宿禾服务式公寓,深圳市,广东省,1,广东省深圳市南山区大冲宿禾服务式公寓
1193,宝能太古城北区,113.93999,22.50119,宝能太古城北区,深圳市,广东省,1,广东省深圳市南山区宝能太古城北区
1194,桑泰丹华府三期,113.96601,22.58746,桑泰丹华府三期,深圳市,广东省,1,广东省深圳市南山区桑泰丹华府三期
1195,华侨城东组团小区,113.981598,22.537041,华侨城东组团小区,深圳市,广东省,1,广东省深圳市南山区沙河街道华侨城东组团小区
1196,沙河东路世纪村,113.965652,22.53355,沙河东路世纪村,深圳市,广东省,1,广东省深圳市南山区沙河街道沙河东路世纪村
1197,海岸明珠,113.931519,22.515551,海岸明珠,深圳市,广东省,1,广东省深圳市南山区海岸明珠
1198,白石洲新堂花园,113.971176,22.547001,白石洲新堂花园,深圳市,广东省,1,广东省深圳市南山区白石洲新堂花园
1199,科技园华润城,113.953789,22.540754,科技园华润城,深圳市,广东省,1,广东省深圳市南山区科技园华润城
1200,蓝月湾畔,113.935577,22.503731,蓝月湾畔,深圳市,广东省,1,广东省深圳市南山区蓝月湾畔
1201,蔚蓝海岸,113.935242,22.508051,蔚蓝海岸,深圳市,广东省,1,广东省深圳市南山区蔚蓝海岸
1202,东角头港湾花园,113.934692,22.486876,东角头港湾花园,深圳市,广东省,1,广东省深圳市南山区蛇口街道东角头港湾花园
1203,四海公寓,113.931458,22.494116,四海公寓,深圳市,广东省,1,广东省深圳市南山区蛇口街道四海公寓
1204,蛇口街道海境界,113.936707,22.492413,蛇口街道海境界,深圳市,广东省,1,广东省深圳市南山区蛇口街道海境界
1205,蛇口街道豪方泽公寓,113.927002,22.488211,蛇口街道豪方泽公寓,深圳市,广东省,1,广东省深圳市南山区蛇口街道豪方泽公寓
1206,西丽街道德意名居,113.961823,22.590611,西丽街道德意名居,深圳市,广东省,1,广东省深圳市南山区西丽街道德意名居
1207,西丽阳光工业区,113.933372,22.633181,西丽阳光工业区,深圳市,广东省,1,广东省深圳市南山区西丽阳光工业区
1208,西海湾花园,113.930679,22.51424,西海湾花园,深圳市,广东省,1,广东省深圳市南山区西海湾花园
1209,锦绣花园,113.978653,22.53446,锦绣花园,深圳市,广东省,1,广东省深圳市南山区锦绣花园
1210,阳光华艺大厦B座,113.92842,22.52488,阳光华艺大厦B座,深圳市,广东省,1,广东省深圳市南山区阳光华艺大厦B座
1211,雍景轩赏湖阁,113.927475,22.494562,雍景轩赏湖阁,深圳市,广东省,1,广东省深圳市南山区雍景轩赏湖阁
1212,登良花园,113.920219,22.51383,登良花园,深圳市,广东省,1,广东省深圳市南山区登良花园
1213,白石洲东四坊,113.970528,22.532103,白石洲东四坊,深圳市,广东省,1,广东省深圳市南山区白石洲东四坊
1214,南光花园,113.924088,22.51906,南光花园,深圳市,广东省,1,广东省深圳市南山区南光花园
1215,大冲新城花园,113.950813,22.54257,大冲新城花园,深圳市,广东省,1,广东省深圳市南山区大冲新城花园
1216,恒立心海湾花园,113.895149,22.500971,恒立心海湾花园,深圳市,广东省,1,广东省深圳市南山区恒立心海湾花园
1217,东方花园,113.979698,22.532591,东方花园,深圳市,广东省,1,广东省深圳市南山区东方花园
1218,海景嘉途酒店,113.986588,22.534615,海景嘉途酒店,深圳市,广东省,1,广东省深圳市南山区海景嘉途酒店
1219,海淮路海天一路交汇工地生活区,113.94429,22.52455,海淮路海天一路交汇工地生活区,深圳市,广东省,1,广东省深圳市南山区海淮路海天一路交汇工地生活区
1220,诺德假日花园,113.90432,22.510281,诺德假日花园,深圳市,广东省,1,广东省深圳市南山区诺德假日花园
1221,雷公岭村,113.926979,22.49226,雷公岭村,深圳市,广东省,1,广东省深圳市南山区雷公岭村
1222,鸿丰大酒店,113.91227,22.51224,鸿丰大酒店,深圳市,广东省,1,中国广东省深圳市南山区东滨路4096号鸿丰大酒店
1223,万科云城一期,113.941285,22.573192,万科云城一期,深圳市,广东省,1,广东省深圳市南山区万科云城一期
1224,大磡1村,113.975822,22.622097,大磡1村,深圳市,广东省,1,广东省深圳市南山区大磡1村
1225,水木丹华,113.989357,22.591619,水木丹华,深圳市,广东省,1,广东省深圳市南山区水木丹华
1226,哈尔滨工业大学（深圳）宿舍楼,113.972024,22.583543,哈尔滨工业大学（深圳）宿舍楼,深圳市,广东省,1,广东省深圳市南山区留仙大道4088号博林天瑞1期西北方向80米
1227,天鹅湖花园,113.982986,22.547045,天鹅湖花园,深圳市,广东省,1,广东省深圳市南山区天鹅湖花园
1228,留仙居南A区,113.948799,22.58358,留仙居南A区,深圳市,广东省,1,广东省深圳市南山区留仙居南A区
1229,招商街道沿山路63号,113.91933,22.49987,招商街道沿山路63号,深圳市,广东省,1,广东省深圳市南山区招商街道沿山路63号
1230,水木华庭,113.98024,22.56246,水木华庭,深圳市,广东省,1,广东省深圳市南山区水木华庭
1231,西丽塘朗城,113.952202,22.57621,西丽塘朗城,深圳市,广东省,1,广东省深圳市南山区西丽塘朗城
1232,艺华花园,113.931427,22.547976,艺华花园,深圳市,广东省,1,广东省深圳市南山区艺华花园
1233,珠光村西区,113.96027,22.57194,珠光村西区,深圳市,广东省,1,广东省深圳市南山区珠光村西区
1234,汉庭优佳酒店（西丽地铁站店）,113.954781,22.558571,汉庭优佳酒店（西丽地铁站店）,深圳市,广东省,1,广东省深圳市南山区汉庭优佳酒店（西丽地铁站店）
1235,御景峰,114.011978,22.598021,御景峰,深圳市,广东省,1,广东省深圳市南山区御景峰
1236,花园城一期,113.922493,22.503281,花园城一期,深圳市,广东省,1,广东省深圳市南山区花园城一期
1237,万豪酒店,113.859016,22.760189,万豪酒店,深圳市,广东省,1,广东省深圳市大鹏新区万豪酒店
1238,南国丽园,114.03019,22.653721,南国丽园,深圳市,广东省,1,广东省深圳市龙华区南国丽园
1239,星河丹堤,114.058372,22.594009,星河丹堤,深圳市,广东省,1,广东省深圳市龙华区星河丹堤
1240,春华四季园,114.051933,22.62105,春华四季园,深圳市,广东省,1,广东省深圳市龙华区春华四季园
1241,观澜街道库坑中心区,114.035553,22.735767,观澜街道库坑中心区,深圳市,广东省,1,广东省深圳市龙华区观澜街道库坑中心区
1242,锦绣江南,114.026512,22.63525,锦绣江南,深圳市,广东省,1,广东省深圳市龙华区民治街道锦绣江南
1243,观壹城,114.069054,22.716293,观壹城,深圳市,广东省,1,广东省深圳市龙华区观湖街道观壹城
1244,华业玫瑰四季2期,114.020264,22.624571,华业玫瑰四季2期,深圳市,广东省,1,广东省深圳市龙华区华业玫瑰四季2期
1245,民治街道丰泽湖山庄,114.054466,22.594219,民治街道丰泽湖山庄,深圳市,广东省,1,广东省深圳市龙华区民治街道丰泽湖山庄
1246,民治街道梅龙苑,114.036278,22.644819,民治街道梅龙苑,深圳市,广东省,1,广东省深圳市龙华区民治街道梅龙苑
1247,民治街道翔龙御庭,114.0084,22.636761,民治街道翔龙御庭,深圳市,广东省,1,广东省深圳市龙华区民治街道翔龙御庭
1248,民治街道金地梅陇镇,114.032204,22.63035,民治街道金地梅陇镇,深圳市,广东省,1,广东省深圳市龙华区民治街道金地梅陇镇
1249,观湖街道懿花园,114.063591,22.693081,观湖街道懿花园,深圳市,广东省,1,广东省深圳市龙华区观湖街道懿花园
1250,观湖街道招商观园,114.060753,22.69067,观湖街道招商观园,深圳市,广东省,1,广东省深圳市龙华区观湖街道招商观园
1251,高尔夫大宅昆士顿区,114.076225,22.722746,高尔夫大宅昆士顿区,深圳市,广东省,1,广东省深圳市龙华区观澜湖高尔夫大宅昆士顿区
1252,华盛峰荟名庭2期,114.042458,22.711752,华盛峰荟名庭2期,深圳市,广东省,1,广东省深圳市龙华区观澜街道华盛峰荟名庭2期
1253,金地上塘道1期,114.021896,22.63365,金地上塘道1期,深圳市,广东省,1,广东省深圳市龙华区金地上塘道1期
1254,龙华圆酒店,114.050613,22.639175,龙华圆酒店,深圳市,广东省,1,广东省深圳市龙华区龙华圆酒店
1255,龙华街道新华苑2期,114.036484,22.655111,龙华街道新华苑2期,深圳市,广东省,1,广东省深圳市龙华区龙华街道新华苑2期
1256,中央悦城,114.242462,22.732189,中央悦城,深圳市,广东省,1,广东省深圳市龙岗区中央悦城
1257,华创云轩B座,114.065758,22.651211,华创云轩B座,深圳市,广东省,1,广东省深圳市龙岗区华创云轩B座
1258,华策中心城,114.244011,22.701269,华策中心城,深圳市,广东省,1,广东省深圳市龙岗区华策中心城
1259,回龙埔万科翰邻城,114.230133,22.729898,回龙埔万科翰邻城,深圳市,广东省,1,广东省深圳市龙岗区回龙埔万科翰邻城
1260,大族河山,114.157051,22.612539,大族河山,深圳市,广东省,1,广东省深圳市龙岗区大族河山
1261,布吉慢城,114.127693,22.625,布吉慢城,深圳市,广东省,1,广东省深圳市龙岗区布吉慢城
1262,布吉新三村,114.118835,22.607544,布吉新三村,深圳市,广东省,1,广东省深圳市龙岗区布吉新三村
1263,布澜路尚峰花园,114.138008,22.623569,布澜路尚峰花园,深圳市,广东省,1,广东省深圳市龙岗区布澜路尚峰花园
1264,秀丽山庄,114.107925,22.611656,秀丽山庄,深圳市,广东省,1,广东省深圳市龙岗区秀丽山庄
1265,龙富花园,114.10891,22.607309,龙富花园,深圳市,广东省,1,广东省深圳市龙岗区西环路八约1街龙富花园
1266,金龙豪庭B栋,114.146851,22.617559,金龙豪庭B栋,深圳市,广东省,1,广东省深圳市龙岗区金龙豪庭B栋
1267,龙岗街道宝能悦澜山,114.25103,22.73472,龙岗街道宝能悦澜山,深圳市,广东省,1,广东省深圳市龙岗区龙岗街道宝能悦澜山
1268,中骏四季阳光一期,114.30358,22.72092,中骏四季阳光一期,深圳市,广东省,1,广东省深圳市龙岗区中骏四季阳光一期
1269,平湖山厦社区梨头廖,114.115646,22.703835,平湖山厦社区梨头廖,深圳市,广东省,1,广东省深圳市龙岗区平湖山厦社区梨头廖
1270,招商依山郡,114.219032,22.7292,招商依山郡,深圳市,广东省,1,广东省深圳市龙岗区招商依山郡
1271,桂芳园八期,114.139481,22.608202,桂芳园八期,深圳市,广东省,1,广东省深圳市龙岗区桂芳园八期
1272,,114.24189,22.683491,嶂背步行街,深圳市,广东省,1,广东省深圳市龙岗区嶂背步行街
1273,吉信街如家酒店,114.202477,22.6425,吉信街如家酒店,深圳市,广东省,1,广东省深圳市龙岗区吉信街如家酒店
1274,和磡路3号,114.06225,22.6237,和磡路3号,深圳市,广东省,1,广东省深圳市龙岗区和磡村和磡路3号
1275,布吉海心汇福园,114.110703,22.617901,布吉海心汇福园,深圳市,广东省,1,广东省深圳市龙岗区布吉海心汇福园
1276,卓然居,114.169708,22.642981,卓然居,深圳市,广东省,1,广东省深圳市龙岗区卓然居
1277,家和花园南区,114.06128,22.61163,家和花园南区,深圳市,广东省,1,广东省深圳市龙岗区家和花园南区
1278,山厦社区南油花园,114.110947,22.69706,山厦社区南油花园,深圳市,广东省,1,广东省深圳市龙岗区山厦社区南油花园
1279,禾坪岗禾坪路5号,114.06685,22.65691,禾坪岗禾坪路5号,深圳市,广东省,1,广东省深圳市龙岗区禾坪岗禾坪路5号
1280,远洋新干线君域花园,114.264458,22.718119,远洋新干线君域花园,深圳市,广东省,1,广东省深圳市龙岗区远洋新干线君域花园
1281,雪象花园新村,114.075745,22.650541,雪象花园新村,深圳市,广东省,1,广东省深圳市龙岗区雪象花园新村
1282,鼎尚华庭,114.301765,22.773556,鼎尚华庭,深圳市,广东省,1,广东省深圳市龙岗区鼎尚华庭
1283,华为荔枝苑,114.07695,22.632759,华为荔枝苑,深圳市,广东省,1,广东省深圳市龙岗区华为荔枝苑
1284,德兴花园德贵苑,114.110703,22.589592,德兴花园德贵苑,深圳市,广东省,1,广东省深圳市龙岗区德兴花园德贵苑
1285,全伟达工业园,114.100922,22.62834,全伟达工业园,深圳市,广东省,1,广东省深圳市龙岗区全伟达工业园
1286,万科麓城,114.102928,22.62501,万科麓城,深圳市,广东省,1,广东省深圳市龙岗区万科麓城
1287,金德丰雅居,114.113029,22.689943,金德丰雅居,深圳市,广东省,1,广东省深圳市龙岗区金德丰雅居
1288,中海康城,114.206421,22.707239,中海康城,深圳市,广东省,1,广东省深圳市龙岗区中海康城
1289,华浩源,114.125343,22.62425,华浩源,深圳市,广东省,1,广东省深圳市龙岗区华浩源
1290,嘉霖·龙禧（龙禧雅苑）,114.243614,22.739239,嘉霖·龙禧（龙禧雅苑）,深圳市,广东省,1,广东省深圳市龙岗区嘉霖·龙禧（龙禧雅苑）
1291,坂田街道荔园新村,114.071236,22.636772,坂田街道荔园新村,深圳市,广东省,1,广东省深圳市龙岗区坂田街道荔园新村
1292,布吉街道百合山庄,114.120071,22.594481,布吉街道百合山庄,深圳市,广东省,1,广东省深圳市龙岗区布吉街道百合山庄
1293,平湖特力商厦,114.131973,22.698538,平湖特力商厦,深圳市,广东省,1,广东省深圳市龙岗区平湖特力商厦
1294,杨美社区长坑三区,114.039413,22.611486,杨美社区长坑三区,深圳市,广东省,1,广东省深圳市龙岗区杨美社区长坑三区
1295,龙城街道万象天成,114.254402,22.723747,龙城街道万象天成,深圳市,广东省,1,广东省深圳市龙岗区龙城街道万象天成
1296,龙城街道东方沁园,114.224785,22.725979,龙城街道东方沁园,深圳市,广东省,1,广东省深圳市龙岗区龙城街道东方沁园
1297,上木古社区岭根吓,114.118782,22.668053,上木古社区岭根吓,深圳市,广东省,1,广东省深圳市龙岗区上木古社区岭根吓
1298,新亚洲花园,114.236504,22.715481,新亚洲花园,深圳市,广东省,1,广东省深圳市龙岗区新亚洲花园
1299,正大时代华庭,114.181473,22.646927,正大时代华庭,深圳市,广东省,1,广东省深圳市龙岗区正大时代华庭
1300,上步中路盛夏公寓,114.095367,22.547791,上步中路盛夏公寓,深圳市,广东省,1,广东省深圳市福田区上步中路盛夏公寓
1301,上沙东村八巷,114.032578,22.521173,上沙东村八巷,深圳市,广东省,1,广东省深圳市福田区上沙东村八巷
1302,侨香村,114.013229,22.552641,侨香村,深圳市,广东省,1,广东省深圳市福田区侨香村
1303,八卦四路意馨居,114.101181,22.564657,八卦四路意馨居,深圳市,广东省,1,广东省深圳市福田区八卦四路意馨居
1304,华强北街道航苑大厦西座,114.083,22.544081,华强北街道航苑大厦西座,深圳市,广东省,1,广东省深圳市福田区华强北街道航苑大厦西座
1305,南园路232号工行公寓,114.08778,22.53822,南园路232号工行公寓,深圳市,广东省,1,广东省深圳市福田区南园街道南园路232号工行公寓
1306,园岭新村,114.10067,22.553909,园岭新村,深圳市,广东省,1,广东省深圳市福田区园岭新村
1307,新洲四街香江西苑,114.041557,22.523621,新洲四街香江西苑,深圳市,广东省,1,广东省深圳市福田区新洲四街香江西苑
1308,景田天健花园,114.033768,22.556971,景田天健花园,深圳市,广东省,1,广东省深圳市福田区景田天健花园
1309,梅东三路半山御景,114.070602,22.572861,梅东三路半山御景,深圳市,广东省,1,广东省深圳市福田区梅东三路半山御景
1310,沙嘴村一坊,114.038002,22.518318,沙嘴村一坊,深圳市,广东省,1,广东省深圳市福田区沙嘴村一坊
1311,益田花园,114.05751,22.513109,益田花园,深圳市,广东省,1,广东省深圳市福田区益田花园
1312,益田花园豪园居,114.057045,22.514774,益田花园豪园居,深圳市,广东省,1,广东省深圳市福田区益田花园豪园居
1313,碧华庭居翠园,114.049309,22.563629,碧华庭居翠园,深圳市,广东省,1,广东省深圳市福田区碧华庭居翠园
1314,福保街道明月花园,114.055222,22.52442,福保街道明月花园,深圳市,广东省,1,广东省深圳市福田区福保街道明月花园
1315,福保街道红树福苑,114.045502,22.509596,福保街道红树福苑,深圳市,广东省,1,广东省深圳市福田区福保街道红树福苑
1316,福华新村,114.071136,22.533541,福华新村,深圳市,广东省,1,广东省深圳市福田区福华新村
1317,福华路维也纳酒店,114.064377,22.526791,福华路维也纳酒店,深圳市,广东省,1,广东省深圳市福田区福华路维也纳酒店
1318,福港路西阳光城市,114.07077,22.523195,福港路西阳光城市,深圳市,广东省,1,广东省深圳市福田区福港路西阳光城市
1319,竹子林越海家园依山阁,114.006783,22.535191,竹子林越海家园依山阁,深圳市,广东省,1,广东省深圳市福田区竹子林越海家园依山阁
1320,笔架山公园员工宿舍,114.081879,22.56447,笔架山公园员工宿舍,深圳市,广东省,1,广东省深圳市福田区笔架山公园员工宿舍
1321,莲花北村,114.05069,22.558821,莲花北村,深圳市,广东省,1,广东省深圳市福田区莲花北村
1322,莲花街道景蜜村,114.038521,22.55513,莲花街道景蜜村,深圳市,广东省,1,广东省深圳市福田区莲花街道景蜜村
1323,莲花街道福莲花园,114.069519,22.54575,莲花街道福莲花园,深圳市,广东省,1,广东省深圳市福田区莲花街道福莲花园
1324,越众小区,114.012108,22.53652,越众小区,深圳市,广东省,1,广东省深圳市福田区越众小区
1325,香蜜新村东区,114.040428,22.547359,香蜜新村东区,深圳市,广东省,1,广东省深圳市福田区香蜜新村东区
1326,益田村,114.0513,22.51433,益田村,深圳市,广东省,1,广东省深圳市福田区益田村
1327,,114.042915,22.564041,下梅林河背村,深圳市,广东省,1,广东省深圳市福田区下梅林河背村
1328,东海国际公寓,114.019501,22.53664,东海国际公寓,深圳市,广东省,1,广东省深圳市福田区东海国际公寓
1329,园中花园,114.098839,22.55221,园中花园,深圳市,广东省,1,广东省深圳市福田区园中花园
1330,新世界伟瑞酒店,114.053093,22.565844,新世界伟瑞酒店,深圳市,广东省,1,广东省深圳市福田区新世界伟瑞酒店
1331,景田北景龙大厦,114.044556,22.558098,景田北景龙大厦,深圳市,广东省,1,广东省深圳市福田区景田北景龙大厦
1332,兰江山第,114.013641,22.564943,兰江山第,深圳市,广东省,1,广东省深圳市福田区梅林街道兰江山第
1333,福滨新村,114.079048,22.530729,福滨新村,深圳市,广东省,1,广东省深圳市福田区福滨新村
1334,福祥街2号1栋,114.08318,22.5323,福祥街2号1栋,深圳市,广东省,1,广东省深圳市福田区福祥街2号1栋
1335,香山美树苑,114.014557,22.540251,香山美树苑,深圳市,广东省,1,广东省深圳市福田区香山美树苑
1336,御锦公馆,114.058052,22.570845,御锦公馆,深圳市,广东省,1,广东省深圳市福田区御锦公馆
1337,香格里拉大酒店,114.05703,22.536222,香格里拉大酒店,深圳市,广东省,1,广东省深圳市福田区香格里拉大酒店
1338,下沙村四坊,114.023521,22.527861,下沙村四坊,深圳市,广东省,1,广东省深圳市福田区下沙村四坊
1339,新洲花园,114.048279,22.526939,新洲花园,深圳市,广东省,1,广东省深圳市福田区新洲花园
1340,金地香蜜山,114.017883,22.553909,金地香蜜山,深圳市,广东省,1,广东省深圳市福田区金地香蜜山
1341,梅林山水居,114.04348,22.570787,梅林山水居,深圳市,广东省,1,广东省深圳市福田区梅林山水居
1342,新洲牌坊街雅庭精品酒店,114.046013,22.52631,新洲牌坊街雅庭精品酒店,深圳市,广东省,1,广东省深圳市福田区新洲牌坊街雅庭精品酒店
1343,下沙花好园,114.025192,22.528271,下沙花好园,深圳市,广东省,1,广东省深圳市福田区下沙花好园
1344,雅颂居,114.06557,22.54363,雅颂居,深圳市,广东省,1,广东省深圳市福田区海田路1008号雅颂居
1345,金地名津,114.073616,22.516157,金地名津,深圳市,广东省,1,广东省深圳市福田区金地名津
1346,玮鹏花园,114.094627,22.541941,玮鹏花园,深圳市,广东省,1,广东省深圳市福田区玮鹏花园
1347,帝和豪庭小区,112.487228,23.057911,帝和豪庭小区,肇庆市,广东省,1,广东省肇庆市端州区城东街道帝和豪庭小区
1348,锦绣山河小区,112.433563,23.053511,锦绣山河小区,肇庆市,广东省,1,广东省肇庆市端州区睦岗街道锦绣山河小区
1349,一米阳光小区,112.565399,23.14522,一米阳光小区,肇庆市,广东省,1,广东省肇庆市鼎湖区坑口街道一米阳光小区
1350,,111.711082,23.398001,新和村,肇庆市,广东省,1,广东省肇庆市封开县杏花镇新和村
1351,唐八叔清补羊火锅店,111.501907,23.439091,唐八叔清补羊火锅店,肇庆市,广东省,1,广东省肇庆市封开县唐八叔清补羊火锅店
1352,广信嘉园,111.500816,23.44758,广信嘉园,肇庆市,广东省,1,广东省肇庆市封开县广信嘉园
1353,乐惠士多店,111.510818,23.42918,乐惠士多店,肇庆市,广东省,1,广东省肇庆市封开县江口镇乐惠士多店
1354,,111.501577,23.434227,曙光路31号,肇庆市,广东省,1,广东省肇庆市封开县江口镇曙光路31号
1355,东方二路115号,111.505183,23.441122,东方二路115号,肇庆市,广东省,1,广东省肇庆市封开县江口镇东方二路115号
1356,水上居民安置楼,111.510818,23.42918,水上居民安置楼,肇庆市,广东省,1,广东省肇庆市封开县江口镇水上居民安置楼
1357,九龙湾小区,112.720383,23.328899,九龙湾小区,肇庆市,广东省,1,广东省肇庆市四会市东城街道九龙湾小区
1358,帝景蓝湾小区,112.472557,23.027611,帝景蓝湾小区,肇庆市,广东省,1,广东省肇庆市高要区南岸街道帝景蓝湾小区
1359,珀丽湾小区,112.458076,23.030479,珀丽湾小区,肇庆市,广东省,1,广东省肇庆市高要区南岸街道珀丽湾小区
1360,,112.316093,23.045719,禄岸村,肇庆市,广东省,1,广东省肇庆市高要区大湾镇禄岸村
1361,碧翠湖度假村,112.430084,23.606922,碧翠湖度假村,肇庆市,广东省,1,广东省肇庆市广宁县南街镇碧翠湖度假村
1362,,114.945778,24.162189,三河积良下村,河源市,广东省,1,广东省河源市东源县船塘镇三河积良下村
1363,,114.706543,23.743971,旺福路,河源市,广东省,1,广东省河源市源城区旺福路
1364,,111.037727,22.47368,永隆竹坳双龙村,茂名市,广东省,1,广东省茂名市信宜市怀乡镇永隆竹坳双龙村
1365,,110.600662,21.438351,企石村,湛江市,广东省,1,广东省湛江市吴川市塘缀镇企石村
1366,汇景湾渡假村,110.864052,21.38648,汇景湾渡假村,湛江市,广东省,1,广东省湛江市吴川市汇景湾渡假村
1367,鼎龙湾2期,110.864388,21.386234,鼎龙湾2期,湛江市,广东省,1,广东省湛江市吴川市鼎龙湾2期
1368,湾南路40号,110.374424,21.268853,湾南路40号,湛江市,广东省,1,广东省湛江市赤坎区湾南路40号
1369,茂达居,110.361763,21.282101,茂达居,湛江市,广东省,1,广东省湛江市赤坎区茂达居
1370,嘉愉假日酒店,110.393646,21.186319,嘉愉假日酒店,湛江市,广东省,1,广东省湛江市霞山区嘉愉假日酒店
1371,金祥花园金银阁,110.414818,21.21167,金祥花园金银阁,湛江市,广东省,1,广东省湛江市霞山区金祥花园金银阁
1372,人民大道中13号邮电小区,110.39564,21.215,人民大道中13号邮电小区,湛江市,广东省,1,广东省湛江市霞山区人民大道中13号邮电小区
1373,,110.121429,21.78653,山心村,湛江市,广东省,1,广东省湛江市廉江市塘蓬镇山心村
1374,恒大绿洲,110.457733,21.256041,恒大绿洲,湛江市,广东省,1,广东省湛江市坡头区恒大绿洲
1375,,110.456093,21.341709,绿水村委会山口村,湛江市,广东省,1,广东省湛江市坡头区龙头镇绿水村委会山口村
1376,金地豪苑帝景庭,110.419907,21.212351,金地豪苑帝景庭,湛江市,广东省,1,广东省湛江市开发区金地豪苑帝景庭
1377,,109.749687,20.87678,曲港村,湛江市,广东省,1,广东省湛江市雷州市纪家镇曲港村
1378,幸福农场旧市场,110.01181,20.56222,幸福农场旧市场,湛江市,广东省,1,广东省湛江市雷州市英利镇幸福农场旧市场
1379,万科金色梦想,113.529778,23.16321,万科金色梦想,广州市,广东省,1,广东省广州市黄埔区云埔街万科金色梦想
1380,中海誉城,113.5263,23.16194,中海誉城,广州市,广东省,1,广东省广州市黄埔区云埔街道中海誉城
1381,亨元花园,113.5355,23.0947,亨元花园,广州市,广东省,1,广东省广州市黄埔区南岗街广海路亨元花园
1382,夏港街蓝玉五街,113.48067,23.18139,夏港街蓝玉五街,广州市,广东省,1,广东省广州市黄埔区夏港街蓝玉五街
1383,君和名城,113.453697,23.10795,君和名城,广州市,广东省,1,广东省广州市黄埔区大沙街丰乐北路君和名城
1384,保利林语山庄芳林二街,113.454651,23.182159,保利林语山庄芳林二街,广州市,广东省,1,广东省广州市黄埔区联和街保利林语山庄芳林二街
1385,金碧世纪花园,113.4292,23.11397,金碧世纪花园,广州市,广东省,1,广东省广州市黄埔区金碧世纪花园
1386,万科幸福誉,113.541656,23.33074,万科幸福誉,广州市,广东省,1,广东省广州市黄埔区龙湖街万科幸福誉
1387,东荟城,113.5036,23.15906,东荟城,广州市,广东省,1,广东省广州市黄埔区云埔街道东荟城
1388,岭南山畔,113.451691,23.177549,岭南山畔,广州市,广东省,1,广东省广州市黄埔区联和街道岭南山畔
1389,万科金色梦想,113.529778,23.16321,万科金色梦想,广州市,广东省,1,广东省广州市黄埔区云埔街道万科金色梦想
1390,万科幸福誉,113.541656,23.33074,万科幸福誉,广州市,广东省,1,广东省广州市黄埔区九龙镇万科幸福誉
1391,萝岗和苑,113.4799,23.18876,萝岗和苑,广州市,广东省,1,广东省广州市黄埔区长岭街道萝岗和苑
1392,万艺维福顿公寓,113.267288,23.115629,万艺维福顿公寓,广州市,广东省,1,广东省广州市越秀区人民街道万艺维福顿公寓
1393,,113.2974,23.12897,农林下路,广州市,广东省,1,广东省广州市越秀区农林下路
1394,金羊花园,113.309349,23.12674,金羊花园,广州市,广东省,1,广东省广州市越秀区梅花村街金羊花园
1395,水均岗,113.3061,23.1316,水均岗,广州市,广东省,1,广东省广州市越秀区水均岗
1396,,113.3106,23.14509,水荫路,广州市,广东省,1,广东省广州市越秀区水荫路
1397,御龙庭,113.295326,23.14267,御龙庭,广州市,广东省,1,广东省广州市越秀区淘金东路御龙庭
1398,,113.2876,23.13896,淘金路,广州市,广东省,1,广东省广州市越秀区淘金路
1399,,113.2668,23.12901,黄花岗街东风东路,广州市,广东省,1,广东省广州市越秀区黄花岗街东风东路
1400,,113.267609,23.11598,人民街道回龙路,广州市,广东省,1,广东省广州市越秀区人民街道回龙路
1401,侨光路万艺广场,113.267357,23.116051,侨光路万艺广场,广州市,广东省,1,广东省广州市越秀区侨光路万艺广场
1402,,113.262428,23.121481,光塔街解放中路,广州市,广东省,1,广东省广州市越秀区光塔街解放中路
1403,,113.286613,23.12455,大东街道东川路,广州市,广东省,1,广东省广州市越秀区大东街道东川路
1404,,113.3076,23.12486,梅花村街道共和大街,广州市,广东省,1,广东省广州市越秀区梅花村街道共和大街
1405,,113.262894,23.14809,流花街道,广州市,广东省,1,广东省广州市越秀区流花街道
1406,,113.2611,23.1164,人民街道大新路小新街,广州市,广东省,1,广东省广州市越秀区人民街道大新路小新街
1407,武汉宾馆,113.254059,23.146099,武汉宾馆,广州市,广东省,1,广东省广州市越秀区流花街道武汉宾馆
1408,大新路,113.254143,23.11504,大新路,广州市,广东省,1,广东省广州市越秀区人民街道大新路
1409,,113.2668,23.12159,北京街道起义路,广州市,广东省,1,广东省广州市越秀区北京街道起义路
1410,,113.2749,23.1418,登峰街道下塘宝汉直街,广州市,广东省,1,广东省广州市越秀区登峰街道下塘宝汉直街
1411,,113.264252,23.12072,光塔街道起义路,广州市,广东省,1,广东省广州市越秀区光塔街道起义路
1412,和平家园,113.31469,23.086691,和平家园,广州市,广东省,1,广东省广州市海珠区凤阳街道和平家园
1413,南华西街道同福西路,113.254318,23.1028,南华西街道同福西路,广州市,广东省,1,广东省广州市海珠区南华西街道同福西路
1414,保利花园,113.273849,23.07091,保利花园,广州市,广东省,1,广东省广州市海珠区南石头街道保利花园
1415,国际轻纺城双子星城星辰轩,113.298744,23.090517,国际轻纺城双子星城星辰轩,广州市,广东省,1,广东省广州市海珠区新港街国际轻纺城双子星城星辰轩
1416,,113.3369,23.08781,江海街石榴岗路,广州市,广东省,1,广东省广州市海珠区江海街石榴岗路
1417,锦江之星,113.278633,23.079889,锦江之星,广州市,广东省,1,广东省广州市海珠区锦江之星
1418,船舶太古酒店,113.25473,23.089569,船舶太古酒店,广州市,广东省,1,广东省广州市海珠区革新路船舶太古酒店
1419,富力现代,113.258217,23.09087,富力现代,广州市,广东省,1,广东省广州市海珠区龙凤街道金沙路富力现代
1420,江悦酒店,113.246803,23.102831,江悦酒店,广州市,广东省,1,广东省广州市海珠区江悦酒店
1421,,113.33124,23.08475,江海街道大塘东边街,广州市,广东省,1,广东省广州市海珠区江海街道大塘东边街
1422,,113.282532,23.108385,滨江街道沙地直街,广州市,广东省,1,广东省广州市海珠区滨江街道沙地直街
1423,琶洲新村,113.38181,23.10041,琶洲新村,广州市,广东省,1,广东省广州市海珠区琶洲街道琶洲新村
1424,,113.3369,23.08781,赤岗街石榴岗路,广州市,广东省,1,广东省广州市海珠区赤岗街石榴岗路
1425,纵横公寓,113.330078,23.095711,纵横公寓,广州市,广东省,1,广东省广州市海珠区赤岗街道纵横公寓
1426,金碧花园,113.287079,23.069,金碧花园,广州市,广东省,1,广东省广州市海珠区瑞宝街道金碧花园
1427,凤凰二街,113.25882,23.091709,凤凰二街,广州市,广东省,1,广东省广州市海珠区龙凤街道凤凰二街
1428,万科华庭,113.253197,23.10318,万科华庭,广州市,广东省,1,广东省广州市海珠区南华西街道万科华庭
1429,细岗路,113.2808,23.09194,细岗路,广州市,广东省,1,广东省广州市海珠区昌岗街道细岗路
1430,金盛大厦,113.275223,23.090321,金盛大厦,广州市,广东省,1,广东省广州市海珠区昌岗街道金盛大厦
1431,南村聚源八巷,113.268036,23.104668,南村聚源八巷,广州市,广东省,1,广东省广州市海珠区江南中街道南村聚源八巷
1432,江南乐居苑,113.26075,23.095329,江南乐居苑,广州市,广东省,1,广东省广州市海珠区龙凤街道江南乐居苑
1433,土华洪福新村,113.35849,23.070265,土华洪福新村,广州市,广东省,1,广东省广州市海珠区华洲街道土华洪福新村
1434,影城花苑,113.318741,23.095736,影城花苑,广州市,广东省,1,广东省广州市海珠区赤岗街道影城花苑
1435,泰沙路马岗顶,113.28492,23.080151,泰沙路马岗顶,广州市,广东省,1,广东省广州市海珠区凤阳街道泰沙路马岗顶
1436,上冲桥南新街,113.32269,23.08063,上冲桥南新街,广州市,广东省,1,广东省广州市海珠区南洲街道上冲桥南新街
1437,中大浦园,113.295288,23.10005,中大浦园,广州市,广东省,1,广东省广州市海珠区新港街道中大浦园
1438,阅江路,113.339203,23.10784,阅江路,广州市,广东省,1,广东省广州市海珠区琶洲街道阅江路
1439,瑞源街二十巷,113.29475,23.07865,瑞源街二十巷,广州市,广东省,1,广东省广州市海珠区瑞宝街道瑞源街二十巷
1440,革新路银山尚橙小区,113.253639,23.0945,革新路银山尚橙小区,广州市,广东省,1,广东省广州市海珠区龙凤街道革新路银山尚橙小区
1441,聚龙新街,113.278931,23.09795,聚龙新街,广州市,广东省,1,广东省广州市海珠区江南中街道前进路聚龙新街
1442,保利天悦,113.3796,23.1026,保利天悦,广州市,广东省,1,广东省广州市海珠区琶洲街道阅江中路保利天悦
1443,台涌村新街,113.3426,23.083704,台涌村新街,广州市,广东省,1,广东省广州市海珠区江海街道台涌村新街
1444,中海橡园,113.25901,23.08857,中海橡园,广州市,广东省,1,广东省广州市海珠区沙园街道水榕路中海橡园
1445,南石头街鸡春岗新街,113.2655,23.07719,南石头街鸡春岗新街,广州市,广东省,1,广东省广州市海珠区南石头街鸡春岗新街
1446,小港路涌边东九巷,113.3172,23.08331,小港路涌边东九巷,广州市,广东省,1,广东省广州市海珠区小港路涌边东九巷
1447,沙园街昌岗中路,113.27217,23.08561,沙园街昌岗中路,广州市,广东省,1,广东省广州市海珠区沙园街昌岗中路
1448,,113.29475,23.07865,瑞宝街道瑞源街,广州市,广东省,1,广东省广州市海珠区瑞宝街道瑞源街
1449,瑞宝街金恒路,113.3172,23.08331,瑞宝街金恒路,广州市,广东省,1,广东省广州市海珠区瑞宝街金恒路
1450,新雍丽酒店,113.577629,23.5555,新雍丽酒店,广州市,广东省,1,广东省广州市从化区城郊街新雍丽酒店
1451,宾馆新村,113.21106,23.38225,宾馆新村,广州市,广东省,1,广东省广州市花都区新华街宾馆新村
1452,锦尚蓬莱,113.236931,23.390711,锦尚蓬莱,广州市,广东省,1,广东省广州市花都区新华街锦尚蓬莱
1453,合和新城锦华,113.256203,23.37289,合和新城锦华,广州市,广东省,1,广东省广州市花都区新雅街道合和新城锦华
1454,,113.181427,23.45462,合成村,广州市,广东省,1,广东省广州市花都区狮岭镇合成村
1455,雅宝新城英伦世家,113.186249,23.426645,雅宝新城英伦世家,广州市,广东省,1,广东省广州市花都区秀全街雅宝新城英伦世家
1456,自由人花园2期,113.220055,23.342855,自由人花园2期,广州市,广东省,1,广东省广州市花都区自由人花园2期
1457,南航花园,113.232307,23.402094,南航花园,广州市,广东省,1,广东省广州市花都区花城街道南航花园
1458,长岗村,113.2585,23.32361,长岗村,广州市,广东省,1,广东省广州市花都区花城街道长岗村
1459,景雅轩小区,113.205872,23.398109,景雅轩小区,广州市,广东省,1,广东省广州市花都区新华街道景雅轩小区
1460,合和新城,113.256203,23.37289,合和新城,广州市,广东省,1,广东省广州市花都区合和新城
1461,,113.22026,23.40391,沙芒南5巷,广州市,广东省,1,广东省广州市花都区沙芒南5巷
1462,建设北路,113.206978,23.405479,建设北路,广州市,广东省,1,广东省广州市花都区新华街道建设北路
1463,坦头村槽船一街,113.564842,22.806219,坦头村槽船一街,广州市,广东省,1,广东省广州市南沙区南沙街坦头村槽船一街
1464,叠翠峰,113.520531,22.796789,叠翠峰,广州市,广东省,1,广东省广州市南沙区叠翠峰
1465,,113.342903,22.83831,蔡源东街,广州市,广东省,1,广东省广州市南沙区榄核镇蔡源东街
1466,碧桂园天玺湾小区,113.577682,22.79892,碧桂园天玺湾小区,广州市,广东省,1,广东省广州市南沙区碧桂园天玺湾小区
1467,万科南方公元,113.501678,22.8053,万科南方公元,广州市,广东省,1,广东省广州市南沙区黄阁镇万科南方公元
1468,璧珑湾,113.529839,22.79995,璧珑湾,广州市,广东省,1,广东省广州市南沙区黄阁镇璧珑湾
1469,中海花湾,113.236557,23.068319,中海花湾,广州市,广东省,1,广东省广州市荔湾区中海花湾
1470,丽枫酒店长寿东路店,113.25162,23.11822,丽枫酒店长寿东路店,广州市,广东省,1,广东省广州市荔湾区华林街道光复中路丽枫酒店长寿东路店
1471,华林街道文昌南路,113.244522,23.11524,华林街道文昌南路,广州市,广东省,1,广东省广州市荔湾区华林街道文昌南路
1472,凯粤湾,113.214706,23.115641,凯粤湾,广州市,广东省,1,广东省广州市荔湾区石围塘街凯粤湾
1473,,113.251465,23.127632,金花街道芦荻街,广州市,广东省,1,广东省广州市荔湾区金花街道芦荻街
1474,御景壹号,113.235573,23.109541,御景壹号,广州市,广东省,1,广东省广州市荔湾区多宝街道御景壹号
1475,恒荔湾畔,113.231979,23.101311,恒荔湾畔,广州市,广东省,1,广东省广州市荔湾区花地街道恒荔湾畔
1476,,113.216,23.1086,石围塘街道兴东路,广州市,广东省,1,广东省广州市荔湾区石围塘街道兴东路
1477,龙津中路,113.243599,23.12429,龙津中路,广州市,广东省,1,广东省广州市荔湾区金花街道龙津中路
1478,招村南胜九巷,113.2389,23.08655,招村南胜九巷,广州市,广东省,1,广东省广州市荔湾区冲口街道招村南胜九巷
1479,体育西小区,113.325111,23.130356,体育西小区,广州市,广东省,1,广东省广州市天河区体育西小区
1480,兴华街沙太南路,113.322929,23.16279,兴华街沙太南路,广州市,广东省,1,广东省广州市天河区兴华街沙太南路
1481,冼村街道华明路,113.322487,23.12216,冼村街道华明路,广州市,广东省,1,广东省广州市天河区冼村街道华明路
1482,珠光御景,113.349,23.11773,珠光御景,广州市,广东省,1,广东省广州市天河区冼村街道潭村路珠光御景
1483,珠光新城御景二期,113.34836,23.11635,珠光新城御景二期,广州市,广东省,1,广东省广州市天河区冼村街道珠光新城御景二期
1484,富力花园,113.3434,23.11352,富力花园,广州市,广东省,1,广东省广州市天河区冼村街道马场路富力花园
1485,凤凰街道渔兴路,113.375671,23.20586,凤凰街道渔兴路,广州市,广东省,1,广东省广州市天河区凤凰街道渔兴路
1486,盈彩美居街彩轩,113.418221,23.114429,盈彩美居街彩轩,广州市,广东省,1,广东省广州市天河区前进街盈彩美居街彩轩
1487,合景路,113.408478,23.155712,合景路,广州市,广东省,1,广东省广州市天河区合景路
1488,天河新作,113.332497,23.135639,天河新作,广州市,广东省,1,广东省广州市天河区天河新作
1489,云城米酷,113.385094,23.16831,云城米酷,广州市,广东省,1,广东省广州市天河区新塘街华观路云城米酷
1490,棠下荷光广州锦顺酒店,113.375183,23.13146,棠下荷光广州锦顺酒店,广州市,广东省,1,广东省广州市天河区棠下荷光广州锦顺酒店
1491,华景新城陶然庭苑,113.3614,23.13787,华景新城陶然庭苑,广州市,广东省,1,广东省广州市天河区棠下街华景新城陶然庭苑
1492,棠雅苑,113.367973,23.13464,棠雅苑,广州市,广东省,1,广东省广州市天河区棠下街枫叶路棠雅苑
1493,新景苑小区,113.369438,23.124331,新景苑小区,广州市,广东省,1,广东省广州市天河区棠下街道棠石路新景苑小区
1494,海景花园,113.366653,23.123301,海景花园,广州市,广东省,1,广东省广州市天河区海景花园
1495,猎德街猎德复建房,113.335274,23.113651,猎德街猎德复建房,广州市,广东省,1,广东省广州市天河区猎德街猎德复建房
1496,暨南大学羊城苑,113.3474,23.1312,暨南大学羊城苑,广州市,广东省,1,广东省广州市天河区石牌街暨南大学羊城苑
1497,林南文化酒店,113.396828,23.124229,林南文化酒店,广州市,广东省,1,广东省广州市天河区车陂街林南文化酒店
1498,金燕花苑,113.3334,23.15329,金燕花苑,广州市,广东省,1,广东省广州市天河区兴华街道粤垦路金燕花苑
1499,珠光新城御景,113.346802,23.116159,珠光新城御景,广州市,广东省,1,广东省广州市天河区冼村街道珠光新城御景
1500,南丫村,113.227409,23.044609,南丫村,广州市,广东省,1,广东省广州市天河区中南街道南丫村
1501,锦顺酒店,113.375183,23.13146,锦顺酒店,广州市,广东省,1,广东省广州市天河区棠下街道锦顺酒店
1502,城市假日园,113.40387,23.125919,城市假日园,广州市,广东省,1,广东省广州市天河区车陂街道城市假日园
1503,沙太南路,113.323479,23.16333,沙太南路,广州市,广东省,1,广东省广州市天河区兴华街道沙太南路
1504,潭村珠光新城御景,113.346802,23.116159,潭村珠光新城御景,广州市,广东省,1,广东省广州市天河区冼村街道潭村珠光新城御景
1505,雅居乐北苑,113.383362,23.0252,雅居乐北苑,广州市,广东省,1,广东省广州市番禺区南村镇雅居乐北苑
1506,名伦花园,113.329849,23.011339,名伦花园,广州市,广东省,1,广东省广州市番禺区名伦花园
1507,大龙街尚东尚筑,113.404831,22.938204,大龙街尚东尚筑,广州市,广东省,1,广东省广州市番禺区大龙街尚东尚筑
1508,维也纳石桥中心店,113.366379,22.941154,维也纳石桥中心店,广州市,广东省,1,广东省广州市番禺区市桥街道维也纳石桥中心店
1509,星河湾半岛,113.352707,23.030411,星河湾半岛,广州市,广东省,1,广东省广州市番禺区星河湾半岛
1510,亚运城媒体村,113.473656,22.944351,亚运城媒体村,广州市,广东省,1,广东省广州市番禺区石楼镇亚运城媒体村
1511,碧桂园东苑倚翠路,113.286331,22.9526,碧桂园东苑倚翠路,广州市,广东省,1,广东省广州市番禺区碧桂园东苑倚翠路
1512,祈福新村祈福名都,113.334442,22.97246,祈福新村祈福名都,广州市,广东省,1,广东省广州市番禺区祈福新村祈福名都
1513,金山谷花园,113.34697,22.977591,金山谷花园,广州市,广东省,1,广东省广州市番禺区金山谷花园
1514,陈涌村,113.372078,22.918659,陈涌村,广州市,广东省,1,广东省广州市番禺区桥南街道陈涌村
1515,大社坊中心街,113.378098,22.957781,大社坊中心街,广州市,广东省,1,广东省广州市番禺区甘棠村东环街大社坊中心街
1516,市桥街丽柏酒店,113.368927,22.94615,市桥街丽柏酒店,广州市,广东省,1,广东省广州市番禺区市桥街丽柏酒店
1517,祈福缤纷汇,113.333458,22.970449,祈福缤纷汇,广州市,广东省,1,广东省广州市番禺区钟村街道祈福缤纷汇
1518,东湖洲花园,113.418259,22.9277,东湖洲花园,广州市,广东省,1,广东省广州市番禺区大龙街道东湖洲花园
1519,未来域,113.311104,22.977942,未来域,广州市,广东省,1,广东省广州市番禺区未来域
1520,荷景一区,113.34481,22.903303,荷景一区,广州市,广东省,1,广东省广州市番禺区沙湾街道荷景一区
1521,祈福新村活力花园,113.328949,22.969721,祈福新村活力花园,广州市,广东省,1,广东省广州市番禺区祈福新村活力花园
1522,鸿福路,113.334396,22.96796,鸿福路,广州市,广东省,1,广东省广州市番禺区钟村街道鸿福路
1523,太平洋花园,113.578033,23.11718,太平洋花园,广州市,广东省,1,广东省广州市增城区新塘镇太平洋花园
1524,尚东阳光,113.575249,23.10317,尚东阳光,广州市,广东省,1,广东省广州市增城区新塘镇尚东阳光
1525,翡翠绿洲,113.561668,23.138273,翡翠绿洲,广州市,广东省,1,广东省广州市增城区新塘镇翡翠绿洲
1526,西洲村,113.581223,23.101259,西洲村,广州市,广东省,1,广东省广州市增城区新塘镇西洲村
1527,西洲村豪门公寓,113.611107,23.119909,西洲村豪门公寓,广州市,广东省,1,广东省广州市增城区新塘镇西洲村豪门公寓
1528,中海城市广场,113.824699,23.28616,中海城市广场,广州市,广东省,1,广东省广州市增城区荔城街中海城市广场
1529,大墩村,113.668289,23.12541,大墩村,广州市,广东省,1,广东省广州市增城区新塘镇大墩村
1530,,113.61862,23.11626,富丽园二街,广州市,广东省,1,广东省广州市增城区新塘镇富丽园二街
1531,,113.851707,23.280397,增江街道碧桂园,广州市,广东省,1,广东省广州市增城区增江街道碧桂园
1532,碧桂园荔园,113.845337,23.275881,碧桂园荔园,广州市,广东省,1,广东省广州市增城区增江街道碧桂园荔园
1533,人和镇清河渡头街,113.295616,23.334291,人和镇清河渡头街,广州市,广东省,1,广东省广州市白云区人和镇清河渡头街
1534,蔚徕酒店,113.372208,23.419666,蔚徕酒店,广州市,广东省,1,广东省广州市白云区人和镇西成路蔚徕酒店
1535,保利西海岸江海花园,113.210342,23.171091,保利西海岸江海花园,广州市,广东省,1,广东省广州市白云区保利西海岸江海花园
1536,元邦航空家园,113.25914,23.204926,元邦航空家园,广州市,广东省,1,广东省广州市白云区元邦航空家园
1537,南湖高尔夫公寓,113.27324,23.15792,南湖高尔夫公寓,广州市,广东省,1,广东省广州市白云区南湖高尔夫公寓
1538,南航明珠酒店,113.297417,23.37195,南航明珠酒店,广州市,广东省,1,广东省广州市白云区南航明珠酒店
1539,同景东街,113.2341,23.15594,同景东街,广州市,广东省,1,广东省广州市白云区同景东街
1540,心谊路,113.256,23.17091,心谊路,广州市,广东省,1,广东省广州市白云区心谊路
1541,时代玫瑰园,113.2868,23.22481,时代玫瑰园,广州市,广东省,1,广东省广州市白云区时代玫瑰园
1542,景云居,113.277382,23.16374,景云居,广州市,广东省,1,广东省广州市白云区景云路景云居
1543,梅滨大厦,113.325623,23.179939,梅滨大厦,广州市,广东省,1,广东省广州市白云区梅滨大厦
1544,棠景街国强北街,113.27324,23.15792,棠景街国强北街,广州市,广东省,1,广东省广州市白云区棠景街国强北街
1545,贝丽花园,113.2547,23.17975,贝丽花园,广州市,广东省,1,广东省广州市白云区棠景街道岗贝路贝丽花园
1546,,113.206512,23.27076,海口直街,广州市,广东省,1,广东省广州市白云区江高镇大田村海口直街
1547,,113.23481,23.195539,石井街道石潭路,广州市,广东省,1,广东省广州市白云区石井街道石潭路
1548,金沙洲保利西子湾,113.210663,23.148121,金沙洲保利西子湾,广州市,广东省,1,广东省广州市白云区金沙洲保利西子湾
1549,鹤龙街联边彭西一街,113.2763,23.23057,鹤龙街联边彭西一街,广州市,广东省,1,广东省广州市白云区鹤龙街联边彭西一街
1550,鹤龙街道乐得花园,113.2753,23.22261,鹤龙街道乐得花园,广州市,广东省,1,广东省广州市白云区鹤龙街道乐得花园
1551,黄边安怀里,113.270767,23.21464,黄边安怀里,广州市,广东省,1,广东省广州市白云区鹤龙街道黄边安怀里
1552,麒麟新村三街二巷,113.337,23.18636,麒麟新村三街二巷,广州市,广东省,1,广东省广州市白云区麒麟新村三街二巷
1553,黄石花园,113.2672,23.20441,黄石花园,广州市,广东省,1,广东省广州市白云区黄石花园
1554,,113.27324,23.15792,黄石街二街,广州市,广东省,1,广东省广州市白云区黄石街二街
1555,白云尚城,113.2852,23.21342,白云尚城,广州市,广东省,1,广东省广州市白云区黄石街白云尚城
1556,,113.253189,23.1733,三元里街道棠下三官后街,广州市,广东省,1,广东省广州市白云区三元里街道棠下三官后街
1557,,113.321602,23.18165,京溪街道广州大道北,广州市,广东省,1,广东省广州市白云区京溪街道广州大道北
1558,,113.266,23.18625,永平街道永泰中街,广州市,广东省,1,广东省广州市白云区永平街道永泰中街
1559,乐嘉路,113.2575,23.16799,乐嘉路,广州市,广东省,1,广东省广州市白云区棠景街道乐嘉路
