id,name,lng,lat,address,full_address,count
0,建行小区,112.856483,35.479191,建行小区,山西省晋城市城区钟家庄迎宾街建行小区,1
1,,112.456207,35.677219,中乡村,山西省晋城市沁水县郑庄镇中乡村,3
2,商业园B区,112.40662,35.49018,商业园B区,山西省晋城市阳城县水村商业园B区,1
3,红星三巷,112.952431,35.638569,红星三巷,山西省晋城市泽州县北义城镇北义城村红星三巷,1
4,锦泰嘉园小区,112.902649,35.550671,锦泰嘉园小区,山西省晋城市泽州县北石店镇锦泰嘉园小区,1
5,王家巷,113.277977,35.770893,王家巷,山西省晋城市陵川县崇文镇城南社区王家巷,1
6,东方红小区,112.59063,37.852959,东方红小区,山西省太原市迎泽区桥东街道东方红小区,1
7,牛站巷迎泽苑8号楼,112.561471,37.848552,牛站巷迎泽苑8号楼,山西省太原市迎泽区迎泽街道牛站巷迎泽苑8号楼,1
8,胜利桥东路省统计局宿舍,112.563538,37.877636,胜利桥东路省统计局宿舍,山西省太原市杏花岭区巨轮街胜利桥东路省统计局宿舍,1
9,晋安3号院,112.578262,37.895027,晋安3号院,山西省太原市杏花岭区胜利东街晋安3号院,1
10,焦化小区,112.483788,37.761532,焦化小区,山西省太原市晋源区焦化小区,2
11,华泰御景湾,112.544342,37.798328,华泰御景湾,山西省太原市小店区华泰御景湾,1
12,汇泰丽城,112.577393,37.723492,汇泰丽城,山西省太原市小店区正阳街汇泰丽城,1
13,山西省政法管理干部学院宿舍,112.57749,37.83687,山西省政法管理干部学院宿舍,山西省太原市小店区营盘街道体育北街6号山西省政法管理干部学院宿舍,1
14,兴华街北小区,112.520851,37.887348,兴华街北小区,山西省太原市尖草坪区汇丰街道兴华街北小区,4
15,金茂悦北区5号院,116.484139,39.754539,金茂悦北区5号院,北京市大兴区瀛海镇金茂悦北区5号院,1
16,双河南里,116.347168,39.734291,双河南里,北京市大兴区观音寺街道双河南里,1
17,格林云墅,116.401649,39.708168,格林云墅,北京市大兴区黄村镇格林云墅,1
18,瑞康家园小区,116.34198,39.7393,瑞康家园小区,北京市大兴区兴丰街道瑞康家园小区,1
19,泰禾中央广场,116.320198,39.713459,泰禾中央广场,北京市大兴区林校路街道泰禾中央广场,1
20,西红门镇瑞海家园二区,116.33179,39.78655,西红门镇瑞海家园二区,北京市大兴区西红门镇瑞海家园二区,1
21,,116.801804,40.358109,河槽村,北京市密云区十里堡镇河槽村,1
22,东坝乡恒大江湾,116.531891,39.969803,东坝乡恒大江湾,北京市朝阳区东坝乡恒大江湾,1
23,北苑路86号嘉铭园,116.42212,40.00216,北苑路86号嘉铭园,北京市朝阳区北苑路86号嘉铭园,1
24,慈云寺北里,116.49498,39.917599,慈云寺北里,北京市朝阳区慈云寺北里,1
25,高碑店乡陶家湾,116.542572,39.9053,高碑店乡陶家湾,北京市朝阳区高碑店乡陶家湾,1
26,来广营乡筑华年,116.427711,40.036083,来广营乡筑华年,北京市朝阳区来广营乡筑华年,1
27,安慧北里,116.414322,39.995655,安慧北里,北京市朝阳区亚运村街道安慧北里,1
28,林萃路10号院,116.374276,40.010511,林萃路10号院,北京市朝阳区奥运村街道林萃路10号院,1
29,明天第一城,116.40921,40.046188,明天第一城,北京市朝阳区来广营乡明天第一城,1
30,将台乡芳园里小区,116.48835,39.974339,将台乡芳园里小区,北京市朝阳区将台乡芳园里小区,1
31,高碑店北花园社区超级蜂巢,116.548889,39.899143,高碑店北花园社区超级蜂巢,北京市朝阳区高碑店北花园社区超级蜂巢,1
32,南磨房乡世纪东方嘉园,116.4935,39.875549,南磨房乡世纪东方嘉园,北京市朝阳区南磨房乡世纪东方嘉园,1
33,驹章胡同,116.425087,39.889252,驹章胡同,北京市东城区体育馆路街道驹章胡同,1
34,道后永康2巷,116.424438,39.942402,道后永康2巷,北京市东城区北新桥街道后永康2巷,1
35,东直门北小街8号,116.426272,39.947741,东直门北小街8号,北京市东城区北新桥街道东直门北小街8号,1
36,新街口外大街15号院,116.370025,39.963371,新街口外大街15号院,北京市海淀区北太平庄街道新街口外大街15号院,1
37,民族大学西路66号鑫德家园,116.3173,39.9495,民族大学西路66号鑫德家园,北京市海淀区紫竹院街道民族大学西路66号鑫德家园,1
38,中科院东南小区,116.323593,39.978989,中科院东南小区,北京市海淀区中关村街道中科院东南小区,1
39,北京师范大学小区,116.365944,39.960609,北京师范大学小区,北京市海淀区北太平庄街道北京师范大学小区,1
40,玉海园二里小区,116.253677,39.919514,玉海园二里小区,北京市海淀区田村路街道玉海园二里小区,1
41,知春路82号院小区,116.329456,39.974753,知春路82号院小区,北京市海淀区中关村街道知春路82号院小区,1
42,天通苑北一区,116.417297,40.076759,天通苑北一区,北京市昌平区天通苑北街道天通苑北一区,1
43,龙泽苑东区,116.326332,40.073669,龙泽苑东区,北京市昌平区龙泽园街道龙泽苑东区,1
44,南营房社区,116.350113,39.918201,南营房社区,北京市西城区展览路街道南营房社区,1
45,复兴门外大街甲20号,116.33971,39.9064,复兴门外大街甲20号,北京市西城区月坛街道复兴门外大街甲20号,1
46,新街口街道富国里,116.365723,39.930149,新街口街道富国里,北京市西城区新街口街道富国里,1
47,龙湖滟澜山,116.50148,40.091801,龙湖滟澜山,北京市顺义区空港街道龙湖滟澜山,1
48,胜利街道义宾南区,116.646248,40.130978,胜利街道义宾南区,北京市顺义区胜利街道义宾南区,1
49,电报局街小区,116.286903,39.849232,电报局街小区,北京市丰台区丰台街道电报局街小区,1
50,西府颐园,116.267921,39.883171,西府颐园,北京市丰台区卢沟桥街道西府颐园,1
51,定安东里,116.414841,39.85947,定安东里,北京市丰台区东铁营街道定安东里,1
52,建国街一里,116.293396,39.847782,建国街一里,北京市丰台区丰台街道建国街一里,1
53,华源四里,116.317902,39.880962,华源四里,北京市丰台区太平桥街道华源四里,1
54,富丰园,116.282761,39.837036,富丰园,北京市丰台区新村街道富丰园,1
55,万源南里小区,116.418321,39.806941,万源南里小区,北京市丰台区东高地街道万源南里小区,1
56,刘孟家园小区,116.302071,39.838261,刘孟家园小区,北京市丰台区新村街道刘孟家园小区,1
57,幸福家园小区东区,116.310715,39.818203,幸福家园小区东区,北京市丰台区花乡街道幸福家园小区东区,1
58,西潞东里小区,116.135231,39.733238,西潞东里小区,北京市房山区西潞街道西潞东里小区,1
59,,115.736198,39.56778,西白岱村,北京市房山区张坊镇西白岱村,1
60,,116.7183,39.693851,崔各庄村,北京市通州区于家务回族乡崔各庄村,1
61,西街天翠阳光新城,116.123558,39.95443,西街天翠阳光新城,北京市石景山区五里坨街道西街天翠阳光新城,1
62,鲁谷远洋山水,116.23951,39.900459,鲁谷远洋山水,北京市石景山区八宝山街道鲁谷远洋山水,1
63,玉泉北里2区,116.248871,39.91946,玉泉北里2区,北京市石景山区玉泉北里2区,1
64,,116.616211,40.285912,郑重庄村,北京市怀柔区庙城镇郑重庄村,1
65,,112.401382,26.390169,培元办事处南塘街,湖南省衡阳市常宁市培元办事处南塘街,1
66,白沙工业园金龙小区,112.655205,26.8169,白沙工业园金龙小区,湖南省衡阳市雁峰区白沙工业园金龙小区,1
67,横岭村7组,112.874,26.18001,横岭村7组,湖南省衡阳市耒阳市公平圩镇横岭村7组,1
68,广兴驾校,112.829659,26.448391,广兴驾校,湖南省衡阳市耒阳市广兴驾校,1
69,新竹村13组,112.8725,26.41777,新竹村13组,湖南省衡阳市耒阳市水东江街道办事处新竹村13组,1
70,竹市村11组,112.8725,26.41777,竹市村11组,湖南省衡阳市耒阳市水东江街道办事处竹市村11组,1
71,里王村5组,112.9282,26.41996,里王村5组,湖南省衡阳市耒阳市水东江街道办事处里王村5组,1
72,水东江铜锣洲,112.881538,26.42803,水东江铜锣洲,湖南省衡阳市耒阳市水东江铜锣洲,1
73,东江13组,113.152847,26.62269,东江13组,湖南省衡阳市耒阳市水东街街道东江13组,1
74,东星村14组,112.914101,26.33709,东星村14组,湖南省衡阳市耒阳市泗门镇东星村14组,1
75,遥田新村,112.857498,26.560301,遥田新村,湖南省衡阳市耒阳市遥田新村,1
76,红星居委会,112.852661,26.553379,红星居委会,湖南省衡阳市耒阳市遥田镇红星居委会,1
77,湖德村7组,113.0574,26.65329,湖德村7组,湖南省衡阳市耒阳市马水镇湖德村7组,1
78,韭菜村杏子组,112.1978,26.949631,韭菜村杏子组,湖南省衡阳市衡阳县井头镇韭菜村杏子组,1
79,,112.389153,27.07774,长岭村,湖南省衡阳市衡阳县台源镇柳树村长岭村,1
80,,112.25666,26.90867,易市村,湖南省衡阳市衡阳县岘山镇易市村,1
81,大马组,112.25666,26.90867,大马组,湖南省衡阳市衡阳县岘山镇易市村大马组,1
82,,112.255943,26.910198,易市街,湖南省衡阳市衡阳县岘山镇易市街,1
83,百叶村老堰组,112.276817,26.953939,百叶村老堰组,湖南省衡阳市衡阳县岘山镇百叶村老堰组,1
84,金风大队干部组,112.301857,26.928619,金风大队干部组,湖南省衡阳市衡阳县岘山镇金风大队干部组,1
85,欧家组,112.301857,26.928619,欧家组,湖南省衡阳市衡阳县岘山镇阳塘村欧家组,1
86,和睦村凤凰堂组,112.407242,27.18059,和睦村凤凰堂组,湖南省衡阳市衡阳县渣江镇和睦村凤凰堂组,1
87,,112.37899,26.967609,中心北路,湖南省衡阳市衡阳县西渡镇中心北路,1
88,星联村柏树村,112.316292,26.964251,星联村柏树村,湖南省衡阳市衡阳县西渡镇星联村柏树村,1
89,长龙村晓湾组,112.355751,27.09989,长龙村晓湾组,湖南省衡阳市衡阳县长安乡长龙村晓湾组,1
90,,112.588333,27.28974,双渡村,湖南省衡阳市衡山县东湖镇双渡村,1
91,塘湾村老湾组,112.567001,27.273609,塘湾村老湾组,湖南省衡阳市衡山县东湖镇塘湾村老湾组,1
92,杉木桥村农科组,112.639877,27.322309,杉木桥村农科组,湖南省衡阳市衡山县东湖镇杉木桥村农科组,1
93,,112.631699,27.31126,立新村,湖南省衡阳市衡山县东湖镇立新村,1
94,灯山村15组,112.719414,27.36936,灯山村15组,湖南省衡阳市衡山县岭坡乡灯山村15组,1
95,新源村11组,112.937111,27.294189,新源村11组,湖南省衡阳市衡山县长江镇新源村11组,1
96,,112.897133,27.30497,胜利村,湖南省衡阳市衡山县长江镇胜利村,1
97,尚书房,112.556717,26.89398,尚书房,湖南省衡阳市蒸湘区尚书房,1
98,棕榈园四期,112.56234,26.90867,棕榈园四期,湖南省衡阳市蒸湘区棕榈园四期,1
99,沐林美郡,112.572258,26.903999,沐林美郡,湖南省衡阳市蒸湘区沐林美郡,1
100,洋洲丽苑,112.564621,26.887581,洋洲丽苑,湖南省衡阳市蒸湘区洋洲丽苑,1
101,润泽上邸,112.569107,26.899771,润泽上邸,湖南省衡阳市蒸湘区润泽上邸,1
102,衡阳名郡,112.598007,26.88685,衡阳名郡,湖南省衡阳市蒸湘区衡阳名郡,1
103,踏冲村17组,112.996994,27.356043,踏冲村17组,湖南省衡阳市衡东县三樟镇踏冲村17组,1
104,雷市村6组,112.869118,27.18082,雷市村6组,湖南省衡阳市衡东县新塘镇雷市村6组,1
105,洣水镇中学,112.977699,27.196239,洣水镇中学,湖南省衡阳市衡东县洣水镇洣水镇中学,1
106,滨江社区居委会,112.949638,27.08182,滨江社区居委会,湖南省衡阳市衡东县洣水镇滨江社区居委会,1
107,荷塘村11组,112.948753,27.27676,荷塘村11组,湖南省衡阳市衡东县石湾镇荷塘村11组,1
108,李家垅村2组,112.891899,27.15192,李家垅村2组,湖南省衡阳市衡东县霞流镇李家垅村2组,1
109,洋塘村4组和7组,112.887138,27.13933,洋塘村4组和7组,湖南省衡阳市衡东县霞流镇洋塘村4组和7组,1
110,光明村21组,112.95578,27.29615,光明村21组,湖南省衡阳市衡东县石湾镇光明村21组,1
111,,112.83947,26.710751,柿子村,湖南省衡阳市衡南县相市乡柿子村,1
112,川口片区将军村胜利组,113.017982,26.895149,川口片区将军村胜利组,湖南省衡阳市衡南县花桥镇川口片区将军村胜利组,1
113,渚溪村总管组,112.980461,26.821699,渚溪村总管组,湖南省衡阳市衡南县花桥镇渚溪村总管组,1
114,高新村三义组,112.997017,26.831409,高新村三义组,湖南省衡阳市衡南县花桥镇高新村高新村三义组,1
115,同古村新铺里,112.330933,26.640381,同古村新铺里,湖南省衡阳市衡南县茅市镇同古村新铺里,1
116,双溪村骚冲组,112.22007,26.872431,双溪村骚冲组,湖南省衡阳市衡南县鸡笼镇双溪村骚冲组,1
117,赤堰村良头冲组,112.243828,26.875839,赤堰村良头冲组,湖南省衡阳市衡南县鸡笼镇赤堰村良头冲组,1
118,赤堰村邓湾组,112.25721,26.87739,赤堰村邓湾组,湖南省衡阳市衡南县鸡笼镇赤堰村邓湾组,1
119,龙腾大厦,112.614288,26.909941,龙腾大厦,湖南省衡阳市石鼓区龙腾大厦,1
120,鸿源大厦,112.62039,26.89456,鸿源大厦,湖南省衡阳市珠晖区鸿源大厦,1
121,腾龙路B栋,112.19017,26.54483,腾龙路B栋,湖南省衡阳市祁东县归阳镇腾龙路B栋,1
122,灵官居委会德胜组,111.963371,26.72191,灵官居委会德胜组,湖南省衡阳市祁东县灵官镇灵官居委会德胜组,1
123,安康小区,112.938492,25.380489,安康小区,湖南省郴州市宜章县玉溪镇安康小区,2
124,,112.97496,25.448469,留军村,湖南省郴州市宜章县五岭镇留军村,1
125,交警大队4中队,112.964218,25.41679,交警大队4中队,湖南省郴州市宜章县玉溪镇交警大队4中队,1
126,湘南人家,113.095078,25.78336,湘南人家,湖南省郴州市苏仙区湘南人家,6
127,石榴湾安置新区,113.052513,25.784439,石榴湾安置新区,湖南省郴州市苏仙区白鹿洞街道石榴湾安置新区,1
128,学府世家,113.038643,25.80546,学府世家,湖南省郴州市苏仙区苏仙岭街道学府世家,1
129,飞虹路学府世家,113.038643,25.80546,飞虹路学府世家,湖南省郴州市苏仙区苏仙岭街道飞虹路学府世家,1
130,君悦澜山,113.040771,25.77356,君悦澜山,湖南省郴州市苏仙区白鹿洞街道君悦澜山,1
131,滨谷湾,112.382683,25.593201,滨谷湾,湖南省郴州市嘉禾县珠泉镇滨谷湾,1
132,长安生态城,113.712723,25.531679,长安生态城,湖南省郴州市汝城县卢阳镇长安生态城,1
133,锦泉花园,113.681557,25.540689,锦泉花园,湖南省郴州市汝城县卢阳镇锦泉花园,1
134,,113.130013,26.23562,晓源村,湖南省郴州市永兴县黄泥镇晓源村,1
135,汇邦国际,113.111557,26.13121,汇邦国际,湖南省郴州市永兴县便江镇汇邦国际,1
136,朝阳实验学校对面,113.119659,26.135981,朝阳实验学校对面,湖南省郴州市永兴县便江镇沙子江路朝阳实验学校对面,1
137,雅庭小区,113.258682,25.950251,雅庭小区,湖南省郴州市资兴市东江街道雅庭小区,3
138,麦市乡中学旁,112.469559,25.50408,麦市乡中学旁,湖南省郴州市临武县麦市乡中学旁,1
139,理想城,113.257607,26.72377,理想城,湖南省郴州市安仁县永乐江镇理想城,5
140,禾市街大市场,113.371246,26.560169,禾市街大市场,湖南省郴州市安仁县禾市乡禾市街大市场,1
141,民工小区,113.002342,25.782511,民工小区,湖南省郴州市北湖区骆仙西路民工小区,1
142,,111.760513,29.77762,新堰村,湖南省常德市澧县梦溪镇新堰村,2
143,,111.865227,29.786409,高兴村,湖南省常德市澧县梦溪镇高兴村,1
144,,111.776917,29.63529,澧浦街道,湖南省常德市澧县澧浦街道,1
145,,111.77726,29.63509,澧澹街道,湖南省常德市澧县澧澹街道,2
146,大汉新城小区,111.761047,29.66044,大汉新城小区,湖南省常德市澧县澧阳街道大汉新城小区,1
147,徐家嘴社区,111.7565,29.652411,徐家嘴社区,湖南省常德市澧县澧阳街道徐家嘴社区,1
148,,111.762466,29.6556,澧阳镇,湖南省常德市澧县澧阳镇,2
149,荷塘月色小区,111.762466,29.6556,荷塘月色小区,湖南省常德市澧县澧阳镇荷塘月色小区,1
150,邓家滩25组,111.762466,29.6556,邓家滩25组,湖南省常德市澧县澧阳镇邓家滩25组,1
151,,111.771118,29.842939,蔡家坡村,湖南省常德市澧县盐井镇蔡家坡村,1
152,,111.872932,29.76156,李家村,湖南省常德市澧县复兴镇李家村,1
153,,111.995781,29.68844,东红村,湖南省常德市澧县如东镇东红村,1
154,,111.98465,29.735355,玉龙村,湖南省常德市澧县如东镇玉龙村,1
155,,112.008621,29.489885,七里村,湖南省常德市澧县官垸镇七里村,1
156,,111.930733,29.623711,东风村,湖南省常德市澧县小渡口镇东风村,3
157,宋二酒店,111.93718,29.635889,宋二酒店,湖南省常德市澧县小渡口镇宋二酒店,1
158,星香源酒店,111.750832,29.64131,星香源酒店,湖南省常德市澧县星香源酒店,1
159,浦金国际小区,111.772522,29.646709,浦金国际小区,湖南省常德市澧县澧浦街道浦金国际小区,1
160,澧西街道社区,111.751389,29.641251,澧西街道社区,湖南省常德市澧县澧西街道社区,1
161,群星社区,111.722267,29.62624,群星社区,湖南省常德市澧县澧西街道群星社区,1
162,,111.7565,29.652411,澧阳街道,湖南省常德市澧县澧阳镇澧阳街道,1
163,芬司街,111.762894,29.634159,芬司街,湖南省常德市澧县澧阳镇芬司街,1
164,,111.756783,29.82502,岩桥村,湖南省常德市澧县盐井镇岩桥村,1
165,运达城二期小区,111.736992,29.625601,运达城二期小区,湖南省常德市澧县运达城二期小区,1
166,,111.691483,29.064159,南坪街道,湖南省常德市武陵区南坪街道,6
167,楠竹山甘露寺小区,111.71405,29.02182,楠竹山甘露寺小区,湖南省常德市武陵区永安街道楠竹山甘露寺小区,2
168,电力巷,111.677063,29.0338,电力巷,湖南省常德市武陵区电力巷,1
169,,111.679176,29.03746,白马湖街道,湖南省常德市武陵区白马湖街道,1
170,,111.704491,29.0602,芷兰街道,湖南省常德市武陵区芷兰街道,1
171,,111.667282,29.04563,长庚街道,湖南省常德市武陵区长庚街道,1
172,乾明商务宾馆,111.713692,29.024851,乾明商务宾馆,湖南省常德市武陵区乾明商务宾馆,1
173,,111.70269,29.024731,府坪街道,湖南省常德市武陵区府坪街道,1
174,,111.685982,29.065729,新河西路,湖南省常德市武陵区新河西路,2
175,市公路局宿舍,111.702995,29.066935,市公路局宿舍,湖南省常德市武陵区芷兰街道市公路局宿舍,1
176,经泽湖畔,111.702217,29.031019,经泽湖畔,湖南省常德市武陵区丹阳街道经泽湖畔,1
177,五福村,111.956039,28.76613,五福村,湖南省常德市汉寿县太子庙镇五福村,1
178,岩嘴社区,111.956039,28.76613,岩嘴社区,湖南省常德市汉寿县太子庙镇岩嘴社区,1
179,和平组,111.860527,28.933149,和平组,湖南省常德市汉寿县沧港镇祝家岗村和平组,1
180,,112.18824,29.090759,酉港镇,湖南省常德市汉寿县酉港镇,1
181,,111.877861,29.62719,三洲驿街道,湖南省常德市津市市三洲驿街道,1
182,,111.977112,29.36138,澧赋村,湖南省常德市津市市毛里湖镇澧赋村,1
183,,112.084969,29.19228,同富村,湖南省常德市鼎城区十美堂镇同富村,1
184,,111.64093,29.151911,石板滩镇,湖南省常德市鼎城区石板滩镇,1
185,西洞庭区2分场4队,111.976463,29.226576,西洞庭区2分场4队,湖南省常德市鼎城区西洞庭区2分场4队,1
186,钱家坪八角楼,111.670547,28.73905,钱家坪八角楼,湖南省常德市鼎城区黄土店镇钱家坪八角楼,1
187,神堰组,111.69751,29.3512,神堰组,湖南省常德市临澧县四新岗镇神堰村神堰组,1
188,,111.563927,29.047819,观音桥村,湖南省常德市桃源县陬市镇观音桥村,1
189,漳江街道云台村,111.475113,28.895462,漳江街道云台村,湖南省常德市桃源县漳江街道云台村,1
190,兴安村6组,111.463638,29.237169,兴安村6组,湖南省常德市桃源县马鬃岭镇兴安村6组,1
191,江家湾组,111.463638,29.237169,江家湾组,湖南省常德市桃源县马鬃岭镇鄢家溪村江家湾组,1
192,,111.140808,28.95941,龙潭镇,湖南省常德市桃源县龙潭镇,1
193,,112.148041,29.413219,大鲸港镇,湖南省常德市安乡县大鲸港镇,1
194,,112.27594,29.49848,三岔河新口村,湖南省常德市安乡县大鲸港镇三岔河新口村,1
195,,112.099396,29.417334,东南州村,湖南省常德市安乡县大鲸港镇东南州村,1
196,,112.114891,29.634789,马坡湖村,湖南省常德市安乡县黄山头镇马坡湖村,3
197,新剅村6组,112.078773,29.503901,新剅村6组,湖南省常德市安乡县安凝乡新剅村6组,1
198,安宏乡小河口,112.211311,29.336,安宏乡小河口,湖南省常德市安乡县安宏乡小河口,1
199,功成村4组,112.117729,29.44487,功成村4组,湖南省常德市安乡县安丰乡功成村4组,1
200,,112.164581,29.43067,书院洲社区,湖南省常德市安乡县深柳镇书院洲社区,1
201,,111.379837,29.586729,二都街道,湖南省常德市石门县二都街道,1
202,,110.806061,29.76726,五通庙村,湖南省常德市石门县雁池乡五通庙村,1
203,三板桥居委会,111.442039,29.51046,三板桥居委会,湖南省常德市石门县夹山镇三板桥居委会,1
204,城西老检察院,111.445183,27.22518,城西老检察院,湖南省邵阳市大祥区城西老检察院,1
205,宝庆中路,111.466507,27.23317,宝庆中路,湖南省邵阳市大祥区宝庆中路,1
206,金豪华府,111.458771,27.22027,金豪华府,湖南省邵阳市大祥区火车南站金豪华府,1
207,紫鑫酒店,111.45668,27.23106,紫鑫酒店,湖南省邵阳市大祥区紫鑫酒店,1
208,江北中驰一城小区,111.453278,27.25491,江北中驰一城小区,湖南省邵阳市北塔区江北中驰一城小区,1
209,鱼苗场小区,111.45652,27.24123,鱼苗场小区,湖南省邵阳市北塔区江北广场鱼苗场小区,1
210,严塘村,111.480858,27.38497,严塘村,湖南省邵阳市新邵县严塘镇严塘村,1
211,栗坪村,111.225281,27.411869,栗坪村,湖南省邵阳市新邵县巨口铺镇栗坪村,1
212,潭溪村,111.612602,27.48201,潭溪村,湖南省邵阳市新邵县潭溪镇潭溪村,1
213,县委大楼,111.460747,27.31937,县委大楼,湖南省邵阳市新邵县酿溪镇县委大楼,1
214,八中怡景苑小区,111.468849,27.316891,八中怡景苑小区,湖南省邵阳市新邵县酿溪镇新阳路八中怡景苑小区,1
215,沙湾社区,111.460747,27.31937,沙湾社区,湖南省邵阳市新邵县酿溪镇沙湾社区,2
216,锦绣华城小区,111.461456,27.30788,锦绣华城小区,湖南省邵阳市新邵县酿溪镇锦绣华城小区,3
217,庙山村6组,111.50251,27.536539,庙山村6组,湖南省邵阳市新邵县坪上镇庙山村6组,2
218,牛头村6组,111.771721,27.454729,牛头村6组,湖南省邵阳市新邵县太子庙镇牛头村6组,1
219,水东村5组,111.211189,27.475611,水东村5组,湖南省邵阳市新邵县迎光乡水东村5组,3
220,沙湾居委会7组,111.480972,27.297991,沙湾居委会7组,湖南省邵阳市新邵县酿溪镇沙湾居委会7组,1
221,龙头村11组,111.612007,27.33721,龙头村11组,湖南省邵阳市新邵县雀塘镇龙头村11组,1
222,,111.46357,27.57443,筱溪村6组,湖南省邵阳市新邵县坪上镇筱溪村6组,1
223,盛世华庭小区,111.300621,26.999451,盛世华庭小区,湖南省邵阳市邵阳县盛世华庭小区,1
224,长阳铺车站楼,111.327118,27.232161,长阳铺车站楼,湖南省邵阳市邵阳县长阳铺车站楼,1
225,人字村16组,111.410873,27.124029,人字村16组,湖南省邵阳市邵阳县九公桥镇人字村16组,3
226,关峡苗族乡茶江村2组,110.317352,26.62225,关峡苗族乡茶江村2组,湖南省邵阳市绥宁县关峡苗族乡茶江村2组,1
227,茶江村3组,110.317352,26.62225,茶江村3组,湖南省邵阳市绥宁县关峡苗族乡茶江村3组,1
228,飞黄村4组,110.851784,26.42902,飞黄村4组,湖南省邵阳市新宁县金石镇飞黄村4组,1
229,军民街,111.042557,27.113501,军民街,湖南省邵阳市隆回县桃洪镇军民街,1
230,司门前丰乐村8组,110.963249,27.3256,司门前丰乐村8组,湖南省邵阳市隆回县司门前丰乐村8组,1
231,乐丰村8组,110.915733,27.529369,乐丰村8组,湖南省邵阳市隆回县司门前镇乐丰村8组,1
232,高回小村6组,111.150009,27.522591,高回小村6组,湖南省邵阳市隆回县坪镇高回小村6组,1
233,黄雅村1组,111.1175,27.269569,黄雅村1组,湖南省邵阳市隆回县滩头镇黄雅村1组,1
234,五四村3组,110.980942,27.217939,五四村3组,湖南省邵阳市隆回县荷香桥镇五四村3组,1
235,机电市场紫薇社区居委会,111.510979,27.24872,机电市场紫薇社区居委会,湖南省邵阳市双清区兴隆街道机电市场紫薇社区居委会,2
236,田江路机机械厂家属楼,111.489342,27.25296,田江路机机械厂家属楼,湖南省邵阳市双清区小江湖街道田江路机机械厂家属楼,1
237,双清佳苑,111.479042,27.249573,双清佳苑,湖南省邵阳市双清区工业街田江路双清佳苑,1
238,火车站乡志城新世纪小区,111.532837,27.25758,火车站乡志城新世纪小区,湖南省邵阳市双清区火车站乡志城新世纪小区,1
239,相山组,110.525948,26.978577,相山组,湖南省邵阳市洞口县又兰镇石桥村相山组,4
240,桥现组,110.774643,27.26226,桥现组,湖南省邵阳市洞口县石柱乡塘湾村桥现组,1
241,塘湾村桥现组,110.774643,27.26226,塘湾村桥现组,湖南省邵阳市洞口县石柱镇塘湾村桥现组,1
242,万里组,110.68689,27.08774,万里组,湖南省邵阳市洞口县竹市镇香樟村万里组,1
243,平口村上汉组,110.74929,27.195129,平口村上汉组,湖南省邵阳市洞口县醪田镇平口村上汉组,1
244,洪茂乡五峰村大院组,110.7024,26.94524,洪茂乡五峰村大院组,湖南省邵阳市洞口县高沙镇洪茂乡五峰村大院组,1
245,家村3组,110.821732,27.229271,家村3组,湖南省邵阳市隆回县张西洋江镇家村3组,1
246,金龙大道,111.742111,27.25601,金龙大道,湖南省邵阳市邵东市两市塘金龙大道,4
247,公园帝景小区,111.748253,27.274309,公园帝景小区,湖南省邵阳市邵东市公园帝景小区,1
248,十中家属区,111.747452,27.2542,十中家属区,湖南省邵阳市邵东市十中家属区,1
249,大田社区,111.755836,27.261766,大田社区,湖南省邵阳市邵东市大禾塘抬宝路大田社区,1
250,东山村,111.784737,27.27284,东山村,湖南省邵阳市邵东市大禾塘街道东山村,1
251,凤凰城废铁市场,111.795151,27.264441,凤凰城废铁市场,湖南省邵阳市邵东市大禾塘街道凤凰城废铁市场,1
252,丰源上城小区,111.751961,27.26351,丰源上城小区,湖南省邵阳市邵东市宋家塘街道丰源上城小区,1
253,兴和路,111.729683,27.25773,兴和路,湖南省邵阳市邵东市宋家塘街道兴和路,1
254,水映绿洲小区,111.731529,27.271296,水映绿洲小区,湖南省邵阳市邵东市宋家塘街道水映绿洲小区,1
255,鞋业城,111.735321,27.256651,鞋业城,湖南省邵阳市邵东市宋家塘衡宝路鞋业城,1
256,药材市场,111.848457,27.321289,药材市场,湖南省邵阳市邵东市廉桥镇药材市场,1
257,清水村社家组,111.969742,27.14193,清水村社家组,湖南省邵阳市邵东市杨桥镇清水村社家组,1
258,石家村长田组,112.036522,27.139851,石家村长田组,湖南省邵阳市邵东市水东江镇石家村长田组,1
259,水映绿洲小区,111.731529,27.271296,水映绿洲小区,湖南省邵阳市邵东市水映绿洲小区,1
260,楠木村新建组,111.838188,27.292891,楠木村新建组,湖南省邵阳市邵东市黄陂桥楠木村新建组,1
261,芦山村7组,111.636841,27.136551,芦山村7组,湖南省邵阳市邵东市九龙岭镇芦山村7组,1
262,檀山村12组,111.743736,27.268021,檀山村12组,湖南省邵阳市邵东市宋家塘街道檀山村12组,1
263,廉桥联丰村10组,111.821747,27.354971,廉桥联丰村10组,湖南省邵阳市邵东市廉桥联丰村10组,1
264,廖泥村1组,111.839172,27.346901,廖泥村1组,湖南省邵阳市邵东市廉桥镇廖泥村1组,1
265,联丰村10组,111.821747,27.354971,联丰村10组,湖南省邵阳市邵东市廉桥镇联丰村10组,1
266,廉桥镇联合村7组,111.848457,27.321289,廉桥镇联合村7组,湖南省邵阳市邵东市廉桥镇联合村7组,1
267,仁家坪村5组,111.87645,27.2917,仁家坪村5组,湖南省邵阳市邵东市流泽镇仁家坪村5组,1
268,三尚村4组,111.650368,27.246559,三尚村4组,湖南省邵阳市邵东市牛马司镇三尚村4组,1
269,丰山村12组,111.937668,27.357071,丰山村12组,湖南省邵阳市邵东市界岭乡丰山村12组,1
270,峰山村1组,111.915352,27.33676,峰山村1组,湖南省邵阳市邵东市界岭镇峰山村1组,1
271,界檀新村2组,111.821472,27.098961,界檀新村2组,湖南省邵阳市邵东市简家陇镇界檀新村2组,1
272,乡庙湾村4组,111.73381,27.30662,乡庙湾村4组,湖南省邵阳市邵东市黑田铺乡庙湾村4组,1
273,三益村7组,111.771568,27.30282,三益村7组,湖南省邵阳市邵东市黑田铺镇三益村7组,1
274,庙湾村4组,111.73381,27.30662,庙湾村4组,湖南省邵阳市邵东市黑田铺镇庙湾村4组,1
275,金世纪佳园小区,111.74736,27.265221,金世纪佳园小区,湖南省邵阳市邵东市宋家塘镇金世纪佳园小区,1
276,,111.897537,27.177031,红星路,湖南省邵阳市邵东市火厂坪镇火厂村红星路,1
277,大湾桥村13组,110.643593,26.89156,大湾桥村13组,湖南省邵阳市武冈市湾头桥镇大湾桥村13组,1
278,铁合金厂下生活区,112.526184,27.728155,铁合金厂下生活区,湖南省湘潭市湘乡市昆仑桥街道铁合金厂下生活区,1
279,,112.320374,27.79705,上新村,湖南省湘潭市湘乡市潭市镇上新村,1
280,万新社区万人新村,112.910507,27.865892,万新社区万人新村,湖南省湘潭市雨湖区云塘街道万新社区万人新村,1
281,旺城天誉,112.933662,27.86865,旺城天誉,湖南省湘潭市雨湖区旺城天誉,2
282,,112.723129,27.661449,栗塘村,湖南省湘潭市湘潭县射埠镇栗塘村,1
283,,112.953911,27.77422,云龙路,湖南省湘潭市湘潭县易俗河镇云龙路,1
284,金牛小区,112.941284,27.779606,金牛小区,湖南省湘潭市湘潭县易俗河镇金牛小区,1
285,锦绣名都,112.973953,27.78211,锦绣名都,湖南省湘潭市湘潭县易俗河镇锦绣名都,2
286,锦绣滨江,112.959793,27.79241,锦绣滨江,湖南省湘潭市湘潭县易俗河镇雪松北路锦绣滨江,1
287,,112.726501,27.5116,泥湾村,湖南省湘潭市湘潭县花石镇泥湾村,2
288,,112.955589,27.772739,牛头岭,湖南省湘潭市湘潭县易俗河镇牛头岭,1
289,,112.612694,27.880489,华南村,湖南省湘潭市韶山市银田镇华南村,1
290,友谊一号,112.928589,27.80316,友谊一号,湖南省湘潭市岳塘区下摄司街道友谊一号,1
291,法华村,113.021782,27.861879,法华村,湖南省湘潭市岳塘区双马街道法华村,1
292,东方名苑1期,112.945908,27.837296,东方名苑1期,湖南省湘潭市岳塘区宝塔街道东方名苑1期,5
293,芙蓉小区,112.927902,27.824739,芙蓉小区,湖南省湘潭市岳塘区岳塘街道芙蓉小区,1
294,湘电怡景苑,112.930847,27.82884,湘电怡景苑,湖南省湘潭市岳塘区湘电怡景苑,1
295,理工职业学院,112.921257,27.836559,理工职业学院,湖南省湘潭市岳塘区理工职业学院,1
296,霞光北苑,112.925667,27.831169,霞光北苑,湖南省湘潭市岳塘区霞光北苑,3
297,,112.6486,28.22917,龙凤山村,湖南省长沙市宁乡市夏铎铺镇龙凤山村,1
298,,112.3348,28.08789,竹田村,湖南省长沙市宁乡市灰汤镇竹田村,1
299,黑金时代小区,112.535561,28.225599,黑金时代小区,湖南省长沙市宁乡市白马桥街道黑金时代小区,1
300,万科紫台,112.961304,28.134781,万科紫台,湖南省长沙市天心区万科紫台,1
301,中信凯旋城,112.980835,28.065147,中信凯旋城,湖南省长沙市天心区中信凯旋城,1
302,君尚嘉筑,112.994799,28.103315,君尚嘉筑,湖南省长沙市天心区刘家冲路126号君尚嘉筑,1
303,北辰中央公园,112.976913,28.0949,北辰中央公园,湖南省长沙市天心区北辰中央公园,1
304,永宏佳园小区,112.979218,28.166384,永宏佳园小区,湖南省长沙市天心区南湖路永宏佳园小区,1
305,富景园,112.991188,28.10008,富景园,湖南省长沙市天心区富景园,1
306,申奥美域公寓,112.98401,28.13521,申奥美域公寓,湖南省长沙市天心区新姚北路398号申奥美域公寓,1
307,润江榕园,112.98002,28.106498,润江榕园,湖南省长沙市天心区新姚南路296号润江榕园,1
308,异国风情御尊民宿,112.969116,28.19311,异国风情御尊民宿,湖南省长沙市天心区湘江中路异国风情御尊民宿,1
309,异国风情酒店,112.969116,28.19311,异国风情酒店,湖南省长沙市天心区湘江中路异国风情酒店,1
310,西湖小区,112.999786,28.041954,西湖小区,湖南省长沙市天心区西湖小区,1
311,公交金盆小区,112.976128,28.146231,公交金盆小区,湖南省长沙市天心区赤岭路公交金盆小区,1
312,鑫远和城,112.988052,28.07852,鑫远和城,湖南省长沙市天心区鑫远和城,1
313,城市便捷酒店（窑岭店）,113.000702,28.18523,城市便捷酒店（窑岭店）,湖南省长沙市雨花区城市便捷酒店（窑岭店）,1
314,红旗雅居,112.988159,28.178499,红旗雅居,湖南省长沙市雨花区小林子冲路红旗雅居,1
315,新城新世界,113.022,28.15809,新城新世界,湖南省长沙市雨花区新城新世界,1
316,旭辉国际,113.03447,28.155481,旭辉国际,湖南省长沙市雨花区旭辉国际,1
317,名都花园小区,113.005051,28.163872,名都花园小区,湖南省长沙市雨花区曙光中路名都花园小区,1
318,树木岭鑫秋大厦,113.025314,28.146572,树木岭鑫秋大厦,湖南省长沙市雨花区树木岭鑫秋大厦,1
319,湘府九号小区,112.996101,28.11104,湘府九号小区,湖南省长沙市雨花区湘府九号小区,1
320,都市馨园,113.02597,28.144661,都市馨园,湖南省长沙市雨花区都市馨园,1
321,阿弥岭社区二片,113.008469,28.17746,阿弥岭社区二片,湖南省长沙市雨花区阿弥岭社区二片,1
322,颐美园叠彩阁,113.005,28.18308,颐美园叠彩阁,湖南省长沙市雨花区颐美园叠彩阁,1
323,高铁南站宜尚酒店,113.042686,28.16884,高铁南站宜尚酒店,湖南省长沙市雨花区高铁南站宜尚酒店,1
324,华银园社区,112.991053,28.149385,华银园社区,湖南省长沙市雨花区华银园社区,1
325,南庭社区全季酒店,113.00602,28.10141,南庭社区全季酒店,湖南省长沙市雨花区洞井街道南庭社区全季酒店,1
326,鑫天佳园,113.008469,28.160151,鑫天佳园,湖南省长沙市雨花区车站南路鑫天佳园,1
327,红星社区亚朵酒店,113.004921,28.120506,红星社区亚朵酒店,湖南省长沙市雨花区井湾子街道红星社区亚朵酒店,1
328,古樟树社区金汇园小区,113.010193,28.075081,古樟树社区金汇园小区,湖南省长沙市雨花区古樟树社区金汇园小区,1
329,天华社区筹委会天华小区,113.025128,28.10825,天华社区筹委会天华小区,湖南省长沙市雨花区天华社区筹委会天华小区,1
330,广益社区绿城桂花城,113.036537,28.167459,广益社区绿城桂花城,湖南省长沙市雨花区广益社区绿城桂花城,1
331,恒达时代花园,113.000664,28.170151,恒达时代花园,湖南省长沙市雨花区恒达时代花园,1
332,恒大城,113.0419,28.09307,恒大城,湖南省长沙市雨花区洞井街道恒大城,1
333,狮子山社区狮子山二片,113.011292,28.168711,狮子山社区狮子山二片,湖南省长沙市雨花区狮子山社区狮子山二片,1
334,锦绣世纪小区,113.006058,28.159157,锦绣世纪小区,湖南省长沙市雨花区车站南路锦绣世纪小区,1
335,雨花家园社区星雨心苑小区,113.041656,28.135208,雨花家园社区星雨心苑小区,湖南省长沙市雨花区雨花家园社区星雨心苑小区,1
336,高铁新城社区星光公寓,113.05661,28.143471,高铁新城社区星光公寓,湖南省长沙市雨花区高铁新城社区星光公寓,1
337,黎雅社区新宇太和园民宿,113.062988,28.138109,黎雅社区新宇太和园民宿,湖南省长沙市雨花区黎雅社区新宇太和园民宿,1
338,黎雅社区黎雅苑,113.060608,28.130871,黎雅社区黎雅苑,湖南省长沙市雨花区黎雅社区黎雅苑,1
339,,113.138,28.322172,白塔村,湖南省长沙市长沙县安沙镇白塔村,1
340,康桥长郡小区,113.121521,28.224134,康桥长郡小区,湖南省长沙市长沙县康桥长郡小区,1
341,,113.208794,28.589769,开慧村,湖南省长沙市长沙县开慧镇开慧村,1
342,早安新城,113.116745,28.136089,早安新城,湖南省长沙市长沙县早安新城,1
343,旺德府凯悦国际城,113.056648,28.229277,旺德府凯悦国际城,湖南省长沙市长沙县旺德府凯悦国际城,1
344,松雅湖畔,113.087112,28.257084,松雅湖畔,湖南省长沙市长沙县星沙街道松雅湖畔,1
345,楚天雅郡,113.12207,28.228531,楚天雅郡,湖南省长沙市长沙县楚天雅郡,1
346,海伦春天,113.12529,28.2388,海伦春天,湖南省长沙市长沙县海伦春天,1
347,爵士湘小区,113.121765,28.219034,爵士湘小区,湖南省长沙市长沙县爵士湘小区,1
348,商业街30号,113.191719,28.227205,商业街30号,湖南省长沙市长沙县黄花镇商业街30号,1
349,恒广国际物流园,113.0818,28.31053,恒广国际物流园,湖南省长沙市长沙县安沙镇恒广国际物流园,1
350,华天精选酒店,113.091103,28.257891,华天精选酒店,湖南省长沙市长沙县星沙街道华天精选酒店,1
351,3614小区,113.099869,28.216402,3614小区,湖南省长沙市长沙县泉塘街道3614小区,1
352,筑梦园小区,113.064667,28.247,筑梦园小区,湖南省长沙市长沙县湘龙街道筑梦园小区,1
353,红树湾小区,113.058037,28.266661,红树湾小区,湖南省长沙市长沙县红树湾小区,1
354,富基世纪公园小区,112.900215,28.296223,富基世纪公园小区,湖南省长沙市望城区富基世纪公园小区,1
355,普瑞大道恒大名都小区,112.910179,28.296124,普瑞大道恒大名都小区,湖南省长沙市望城区普瑞大道恒大名都小区,1
356,米地亚家园,112.869797,28.254061,米地亚家园,湖南省长沙市望城区金山桥街道米地亚家园,1
357,长沙医学院教职工宿舍,112.874,28.29618,长沙医学院教职工宿舍,湖南省长沙市望城区长沙医学院教职工宿舍,1
358,南塘村,112.920807,28.30682,南塘村,湖南省长沙市望城区大泽湖街道南塘村,1
359,一路吉祥巷,112.975098,28.199141,一路吉祥巷,湖南省长沙市开福区一路吉祥巷,1
360,三一大道景瑞酒店,113.005188,28.229919,三一大道景瑞酒店,湖南省长沙市开福区三一大道景瑞酒店,1
361,英祥春天小区,112.99687,28.2509,英祥春天小区,湖南省长沙市开福区开福区福元西路220号英祥春天小区,1
362,月湖兰庭,113.041801,28.235929,月湖兰庭,湖南省长沙市开福区月湖兰庭,1
363,水木轩,112.997078,28.23633,水木轩,湖南省长沙市开福区水木轩,1
364,汉庭酒店(湘春路店),112.978371,28.20981,汉庭酒店(湘春路店),湖南省长沙市开福区汉庭酒店(湘春路店),1
365,珠江花城,112.992102,28.255679,珠江花城,湖南省长沙市开福区珠江花城,1
366,新港路80号（长沙港码头）,112.93778,28.3213,新港路80号（长沙港码头）,湖南省长沙市开福区秀峰街道新港路80号（长沙港码头）,1
367,如家酒店（芙蓉中路一段店）,112.98566,28.20169,如家酒店（芙蓉中路一段店）,湖南省长沙市开福区芙蓉中路一段496号如家酒店（芙蓉中路一段店）,1
368,长沙泊富名致公寓酒店,112.984581,28.209141,长沙泊富名致公寓酒店,湖南省长沙市开福区长沙泊富名致公寓酒店,1
369,通广宿舍,112.986015,28.200975,通广宿舍,湖南省长沙市开福区芙蓉中路一段559号通广宿舍,1
370,维也纳酒店(秀峰公园店),112.98027,28.27645,维也纳酒店(秀峰公园店),湖南省长沙市开福区芙蓉北路一段157号,1
371,四季美景,113.011971,28.23678,四季美景,湖南省长沙市开福区四方坪街道四季美景,1
372,洪西小区,113.039017,28.244749,洪西小区,湖南省长沙市开福区洪山街道洪西小区,1
373,万国城,112.997932,28.254311,万国城,湖南省长沙市开福区浏阳河街道万国城,1
374,留芳岭1号,112.9828,28.21075,留芳岭1号,湖南省长沙市开福区湘雅路街道留芳岭1号,1
375,金都大厦,113.63839,28.14381,金都大厦,湖南省长沙市浏阳市圭斋东路金都大厦,1
376,文中路,113.928917,28.04566,文中路,湖南省长沙市浏阳市文家市镇文中路,1
377,五丰村,113.430382,27.95336,五丰村,湖南省长沙市浏阳市普迹镇五丰村,1
378,洲田村,113.75943,28.030569,洲田村,湖南省长沙市浏阳市澄潭江镇洲田村,1
379,湘运新村,113.029961,28.19433,湘运新村,湖南省长沙市芙蓉区万家丽中路一段湘运新村,1
380,万象新天小区,113.011353,28.20067,万象新天小区,湖南省长沙市芙蓉区万象新天小区,1
381,东玺门小区,113.027,28.1936,东玺门小区,湖南省长沙市芙蓉区东玺门小区,1
382,中交中央公园,113.069328,28.19022,中交中央公园,湖南省长沙市芙蓉区中交中央公园,1
383,乔庄巷,112.994057,28.193489,乔庄巷,湖南省长沙市芙蓉区乔庄巷,1
384,凯通国际,113.008957,28.187395,凯通国际,湖南省长沙市芙蓉区凯通国际,1
385,,113.001907,28.191713,向韶村,湖南省长沙市芙蓉区向韶村,1
386,怡程酒店,113.03539,28.20279,怡程酒店,湖南省长沙市芙蓉区怡程酒店,1
387,恒大江湾,113.050728,28.204576,恒大江湾,湖南省长沙市芙蓉区恒大江湾,1
388,杨家山市直机关宿舍,113.017143,28.186975,杨家山市直机关宿舍,湖南省长沙市芙蓉区杨家山市直机关宿舍,1
389,王府花园,113.009117,28.210529,王府花园,湖南省长沙市芙蓉区王府花园,1
390,省公安厅机关二院,113.005966,28.196911,省公安厅机关二院,湖南省长沙市芙蓉区省公安厅机关二院,1
391,西南明苑,113.012779,28.21007,西南明苑,湖南省长沙市芙蓉区西南明苑,1
392,铁银大厦,113.00322,28.190109,铁银大厦,湖南省长沙市芙蓉区铁银大厦,1
393,万科金域缇香,112.950401,28.1474,万科金域缇香,湖南省长沙市岳麓区万科金域缇香,1
394,世贸铂翠湾二期,112.95725,28.22768,世贸铂翠湾二期,湖南省长沙市岳麓区世贸铂翠湾二期,1
395,中央美郡小区,112.924103,28.21237,中央美郡小区,湖南省长沙市岳麓区中央美郡小区,1
396,中海国际三区,112.9217,28.13988,中海国际三区,湖南省长沙市岳麓区中海国际三区,1
397,中南一号苑,112.95105,28.14559,中南一号苑,湖南省长沙市岳麓区丰顺路中南一号苑,1
398,佳兆业云顶梅溪湖四期,112.895348,28.17852,佳兆业云顶梅溪湖四期,湖南省长沙市岳麓区佳兆业云顶梅溪湖四期,1
399,奥克斯缔壹城,112.9138,28.23407,奥克斯缔壹城,湖南省长沙市岳麓区奥克斯缔壹城,1
400,宜居莱茵城,112.909447,28.22732,宜居莱茵城,湖南省长沙市岳麓区宜居莱茵城,1
401,山水誉峰,112.951729,28.21372,山水誉峰,湖南省长沙市岳麓区山水誉峰,1
402,恒大华府,112.932419,28.244289,恒大华府,湖南省长沙市岳麓区恒大华府,1
403,旭辉御府,112.870117,28.18955,旭辉御府,湖南省长沙市岳麓区旭辉御府,1
404,枫林三路惠和苑,112.863617,28.203199,枫林三路惠和苑,湖南省长沙市岳麓区枫林三路惠和苑,1
405,梅溪四季,112.8822,28.18918,梅溪四季,湖南省长沙市岳麓区梅溪四季,1
406,浪琴湾小区,112.8947,28.19612,浪琴湾小区,湖南省长沙市岳麓区浪琴湾小区,1
407,港湾酒店（长沙西站店）,112.82608,28.261959,港湾酒店（长沙西站店）,湖南省长沙市岳麓区港湾酒店（长沙西站店）,1
408,湘熙水郡,112.94606,28.11544,湘熙水郡,湖南省长沙市岳麓区湘熙水郡,1
409,米兰春天小区,112.9013,28.13455,米兰春天小区,湖南省长沙市岳麓区米兰春天小区,1
410,金科东方大院,112.884048,28.24287,金科东方大院,湖南省长沙市岳麓区金科东方大院,1
411,金色山庄,112.950302,28.22299,金色山庄,湖南省长沙市岳麓区金色山庄,1
412,银州小区,112.957024,28.229259,银州小区,湖南省长沙市岳麓区银州小区,1
413,阳光丽城,112.9501,28.24736,阳光丽城,湖南省长沙市岳麓区阳光丽城,1
414,靳江小区,112.9489,28.14327,靳江小区,湖南省长沙市岳麓区靳江小区,1
415,骑龙小区,112.874657,28.1929,骑龙小区,湖南省长沙市岳麓区骑龙小区,1
416,长沙湘江豪生酒店,112.96403,28.23602,长沙湘江豪生酒店,湖南省长沙市岳麓区滨江景观道168号长沙湘江豪生酒店,1
417,银盆岭新天地小区,112.953369,28.22201,银盆岭新天地小区,湖南省长沙市岳麓区银盆岭新天地小区,1
418,广宇园丁新村,112.93487,28.16497,广宇园丁新村,湖南省长沙市岳麓区麓山南路822号广宇园丁新村,1
419,,111.209541,29.42561,两溪村,湖南省张家界市慈利县零阳镇两溪村,1
420,,110.18084,29.4786,洪家关白族乡龙凤塔村,湖南省张家界市桑植县洪家关白族乡龙凤塔村,2
421,永定街道办事处教场社区,110.483047,29.131905,永定街道办事处教场社区,湖南省张家界市永定区永定街道办事处教场社区,1
422,,111.593231,25.517639,爱莲中路19号,湖南省永州市道县爱莲中路19号,1
423,,109.182449,27.348175,新建路,湖南省怀化市新晃县晃洲镇新建路,1
424,永盛新城,109.68425,26.570601,永盛新城,湖南省怀化市靖州县渠阳镇梅林路永盛新城,2
425,九龙村11组,109.564209,26.62327,九龙村11组,湖南省怀化市靖州县坳上镇九龙村11组,1
426,,109.68959,26.568661,红星村,湖南省怀化市靖州县飞山乡红星村,1
427,文明街1组,110.685692,27.932802,文明街1组,湖南省怀化市溆浦县桥江镇文明街1组,3
428,,110.586021,27.92231,张家桥村1组,湖南省怀化市溆浦县卢峰镇张家桥村1组,1
429,,110.528702,28.01099,板溪村,湖南省怀化市溆浦县均坪镇板溪村,1
430,永兴街,110.685257,27.93716,永兴街,湖南省怀化市溆浦县桥江镇永兴街,2
431,初落村1组,110.678642,28.02174,初落村1组,湖南省怀化市溆浦县双井镇初落村1组,1
432,,110.637527,27.843941,邱家湾村10组,湖南省怀化市溆浦县水东镇邱家湾村10组,1
433,,109.687866,27.44309,东紫巷,湖南省怀化市芷江县东紫巷,1
434,,110.749969,28.69059,陈家滩乡,湖南省怀化市沅陵县陈家滩乡,1
435,天凯综合大市场,109.941917,27.53779,天凯综合大市场,湖南省怀化市鹤城区天凯综合大市场,1
436,宏丰大厦,109.991768,27.54562,宏丰大厦,湖南省怀化市鹤城区宏丰大厦,1
437,岳麓欧城小区,110.000526,27.52429,岳麓欧城小区,湖南省怀化市鹤城区岳麓欧城小区,2
438,广铁四公司,109.98468,27.558256,广铁四公司,湖南省怀化市鹤城区广铁四公司,1
439,河西天庆大厦,109.94574,27.53821,河西天庆大厦,湖南省怀化市鹤城区河西天庆大厦,1
440,河西汽配城,109.949257,27.53314,河西汽配城,湖南省怀化市鹤城区河西汽配城,1
441,河西润兰公司2号粮油市场,110.04098,27.57771,河西润兰公司2号粮油市场,湖南省怀化市鹤城区河西润兰公司2号粮油市场,1
442,碧桂园小区,109.992195,27.582546,碧桂园小区,湖南省怀化市鹤城区环城北路碧桂园小区,1
443,河西家电城,109.953751,27.544689,河西家电城,湖南省怀化市鹤城区舞阳大道河西家电城,1
444,四中新苑,110.000565,27.558424,四中新苑,湖南省怀化市鹤城区迎丰东路四中新苑,1
445,丰和园小区,109.995079,27.551153,丰和园小区,湖南省怀化市鹤城区迎丰路丰和园小区,1
446,邮电局家属区,109.96283,27.550938,邮电局家属区,湖南省怀化市鹤城区人民南路邮电局家属区,1
447,宏宇新城橡树湾,110.007927,27.54438,宏宇新城橡树湾,湖南省怀化市鹤城区宏宇新城橡树湾,1
448,中心市场第二通道怀仁药房楼上,109.968788,27.54891,中心市场第二通道怀仁药房楼上,湖南省怀化市鹤城区人民南路中心市场第二通道怀仁药房楼上,1
449,水木天成,109.977478,27.53471,水木天成,湖南省怀化市鹤城区水木天成,1
450,沿河南路1号,109.962257,27.534961,沿河南路1号,湖南省怀化市鹤城区沿河南路1号,1
451,,110.113358,27.97653,柏林村,湖南省怀化市辰溪县潭湾镇柏林村,2
452,农村商业银行家属区,110.239464,28.10166,农村商业银行家属区,湖南省怀化市辰溪县农村商业银行家属区,1
453,,110.113358,27.97653,柏林村17组,湖南省怀化市辰溪县潭湾镇柏林村17组,1
454,城南加油站帝景苑小区旁,109.800087,27.862007,城南加油站帝景苑小区旁,湖南省怀化市麻阳县高村镇城南加油站帝景苑小区旁,2
455,世代华庭,113.152817,27.833799,世代华庭,湖南省株洲市芦淞区世代华庭,1
456,摩托车大市场,113.189941,27.8188,摩托车大市场,湖南省株洲市芦淞区摩托车大市场,1
457,董公芋寓,113.1523,27.78499,董公芋寓,湖南省株洲市芦淞区董公芋寓,1
458,青龙湾中心安置镇,113.152939,27.762503,青龙湾中心安置镇,湖南省株洲市芦淞区青龙湾中心安置镇,1
459,,113.160828,27.8255,建宁新村,湖南省株洲市芦淞区建宁新村,1
460,,113.24192,27.813169,竹林村,湖南省株洲市芦淞区白关镇竹林村,1
461,桥头社区,113.153061,27.841511,桥头社区,湖南省株洲市芦淞区建设街道桥头社区,2
462,,113.176842,27.81921,龙泉街道杨柳村,湖南省株洲市芦淞区龙泉街道杨柳村,1
463,四季花园小区,113.153191,27.819611,四季花园小区,湖南省株洲市芦淞区四季花园小区,1
464,湘江四季花园小区,113.152763,27.81974,湘江四季花园小区,湖南省株洲市芦淞区湘江四季花园小区,1
465,亿都新天地,113.145889,27.872829,亿都新天地,湖南省株洲市石峰区亿都新天地,1
466,圣华名城,113.130508,27.861759,圣华名城,湖南省株洲市石峰区圣华名城,1
467,兴城大厦,113.097984,27.882687,兴城大厦,湖南省株洲市石峰区兴城大厦,1
468,昱峰花园,113.117569,27.873039,昱峰花园,湖南省株洲市石峰区昱峰花园,1
469,清石广场家豪商居楼,113.096695,27.889284,清石广场家豪商居楼,湖南省株洲市石峰区清水塘街道清石广场家豪商居楼,1
470,,113.171692,27.92181,龙头村,湖南省株洲市石峰区龙头铺镇龙头村,2
471,响石东路18号,113.11003,27.87479,响石东路18号,湖南省株洲市石峰区响石岭街道响石东路18号,1
472,田心东门馨柳楼,113.133461,27.879787,田心东门馨柳楼,湖南省株洲市石峰区田心街道田心东门馨柳楼,1
473,荷塘香榭,113.17453,27.86108,荷塘香榭,湖南省株洲市荷塘区荷塘香榭,1
474,财富小区,113.176437,27.843081,财富小区,湖南省株洲市荷塘区财富小区,4
475,金色荷塘,113.167908,27.86293,金色荷塘,湖南省株洲市荷塘区金色荷塘,2
476,佳安名苑,113.175697,27.841669,佳安名苑,湖南省株洲市荷塘区佳安名苑,3
477,印象华都,113.14817,27.872681,印象华都,湖南省株洲市荷塘区印象华都,1
478,荷塘佳苑小区,113.14576,27.85667,荷塘佳苑小区,湖南省株洲市荷塘区荷塘佳苑小区,1
479,尚岳嘉苑,113.155975,27.844051,尚岳嘉苑,湖南省株洲市荷塘区茨菇塘街道尚岳嘉苑,2
480,亚泰时代广场,113.163582,27.83535,亚泰时代广场,湖南省株洲市荷塘区亚泰时代广场,1
481,,113.17189,27.841579,月塘街道宝健巷,湖南省株洲市荷塘区月塘街道宝健巷,1
482,,113.154518,27.873171,三冲村,湖南省株洲市云龙示范区三冲村,1
483,碧桂园,113.159897,27.89386,碧桂园,湖南省株洲市云龙示范区碧桂园,1
484,荷塘株百,113.171043,27.895029,荷塘株百,湖南省株洲市云龙示范区荷塘株百,1
485,430朝阳村,114.013092,26.40451,430朝阳村,湖南省株洲市天元区430朝阳村,1
486,万豪酒店,113.086899,27.83222,万豪酒店,湖南省株洲市天元区万豪酒店,1
487,丽景滨江,113.13446,27.83861,丽景滨江,湖南省株洲市天元区丽景滨江,1
488,九八缔景城,113.080078,27.81179,九八缔景城,湖南省株洲市天元区九八缔景城,1
489,春藤小镇,113.089706,27.793739,春藤小镇,湖南省株洲市天元区春藤小镇,2
490,江湾1号,113.103561,27.80394,江湾1号,湖南省株洲市天元区江湾1号,4
491,颐景园,113.085152,27.824829,颐景园,湖南省株洲市天元区颐景园,1
492,丽晶滨江,113.13446,27.83861,丽晶滨江,湖南省株洲市天元区丽晶滨江,1
493,布塘组,113.08231,27.82681,布塘组,湖南省株洲市天元区雷打石镇凤凰山村布塘组,1
494,庐山恋小区,113.123558,27.835699,庐山恋小区,湖南省株洲市天元区庐山恋小区,1
495,泰山公馆小区,113.098587,27.813181,泰山公馆小区,湖南省株洲市天元区泰山公馆小区,1
496,,113.08231,27.82681,湖田村,湖南省株洲市天元区三门镇湖田村,1
497,,113.65976,26.835239,横屋村,湖南省株洲市茶陵县腰潞镇横屋村,1
498,,113.631592,26.847441,东山村,湖南省株洲市茶陵县腰陂镇东山村,2
499,国瓷社区花园庵诊所,113.488884,27.667566,国瓷社区花园庵诊所,湖南省株洲市醴陵市国瓷社区花园庵诊所,1
500,清水江卫生院,113.55513,27.466534,清水江卫生院,湖南省株洲市醴陵市清水江卫生院,2
501,村市柳组,113.497429,27.423969,村市柳组,湖南省株洲市醴陵市船湾镇荆村村市柳组,2
502,黄泥坳82号,113.489616,27.78952,黄泥坳82号,湖南省株洲市醴陵市黄泥坳82号,1
503,,113.471138,27.53274,石虎村,湖南省株洲市醴陵市泗汾镇石虎村,1
504,,113.497757,27.52873,荷田村,湖南省株洲市醴陵市泗汾镇荷田村,1
505,四中家属楼,113.509293,27.667339,四中家属楼,湖南省株洲市醴陵市四中家属楼,2
506,,113.34787,27.61795,长沙岭村,湖南省株洲市醴陵市茶山镇长沙岭村,1
507,烟花市场,113.50563,27.6716,烟花市场,湖南省株洲市醴陵市来龙门街道烟花市场,1
508,清石广场家豪商居楼,113.096695,27.889284,清石广场家豪商居楼,湖南省株洲市醴陵市清水塘街道清石广场家豪商居楼,1
509,背屋组,113.339378,27.00461,背屋组,湖南省株洲市攸县侯市村联星街道背屋组,1
510,网岭大瑞村,113.505524,27.255409,网岭大瑞村,湖南省株洲市攸县网岭大瑞村,1
511,网岭笙塘村,113.470772,27.273199,网岭笙塘村,湖南省株洲市攸县网岭笙塘村,1
512,网岭罗家坪,113.487373,27.21607,网岭罗家坪,湖南省株洲市攸县网岭罗家坪,1
513,中心组,113.442711,27.230419,中心组,湖南省株洲市攸县网岭镇宝山湖村中心组,1
514,,113.318748,27.283171,盘上村,湖南省株洲市攸县丫江桥镇盘上村,1
515,,113.25927,26.863461,大洲村,湖南省株洲市攸县渌田镇大洲村,1
516,高楼居委会,113.550087,27.122299,高楼居委会,湖南省株洲市攸县莲塘坳镇高楼居委会,1
517,陂龙组,113.288696,26.81188,陂龙组,湖南省株洲市攸县渌田镇陂龙组,1
518,,113.264549,29.349163,三荷乡神堂村,湖南省岳阳市经开区三荷乡神堂村,1
519,,113.157623,29.355539,八字门亮山村,湖南省岳阳市经开区八字门亮山村,1
520,星河国际,113.176651,29.3454,星河国际,湖南省岳阳市经开区星河国际,1
521,蓝盾新天地,113.166481,29.35174,蓝盾新天地,湖南省岳阳市经开区蓝盾新天地,1
522,白石岭综合市场,113.164726,29.363911,白石岭综合市场,湖南省岳阳市经开区通海路管理处白石岭综合市场,1
523,茶场小区,113.161407,29.376881,茶场小区,湖南省岳阳市经开区茶场小区,1
524,八字门农资市场,113.164726,29.363911,八字门农资市场,湖南省岳阳市经开区通海路管理处八字门农资市场,1
525,亮山社区,113.158096,29.36644,亮山社区,湖南省岳阳市经开区通海路管理处亮山社区,1
526,,113.486252,29.154619,杨塅村,湖南省岳阳市岳阳县公田镇杨塅村,1
527,桥东居委会,113.122269,29.135111,桥东居委会,湖南省岳阳市岳阳县荣家湾镇桥东居委会,1
528,,113.122269,29.135111,三塘村,湖南省岳阳市岳阳县荣家湾镇三塘村,1
529,莲塘片,113.287781,29.19248,莲塘片,湖南省岳阳市岳阳县筻口镇移山村莲塘片,1
530,岳州帝苑,113.122414,29.34683,岳州帝苑,湖南省岳阳市南湖新区南湖街道办事处岳州帝苑,2
531,滨水新境界,113.174759,29.34441,滨水新境界,湖南省岳阳市南湖新区湖滨街道滨水新境界,1
532,滨湖新世界,113.092216,29.317799,滨湖新世界,湖南省岳阳市南湖新区湖滨街道滨湖新世界,1
533,青山寺社区,112.910606,28.856279,青山寺社区,湖南省岳阳市屈原管理区屈原镇青山寺社区,1
534,德胜家园,113.109352,29.370546,德胜家园,湖南省岳阳市岳阳楼区东茅岭街道德胜家园,2
535,五里牌中建小区,113.123619,29.368597,五里牌中建小区,湖南省岳阳市岳阳楼区五里牌中建小区,1
536,城陵矶桂花园小区,113.149223,29.430571,城陵矶桂花园小区,湖南省岳阳市岳阳楼区城陵矶桂花园小区,1
537,桂花园小区,113.149223,29.430571,桂花园小区,湖南省岳阳市岳阳楼区城陵矶街道桂花园小区,1
538,,113.180367,29.415039,小湖湾二村,湖南省岳阳市岳阳楼区小湖湾二村,1
539,岳阳楼区3517厂,113.09565,29.382414,岳阳楼区3517厂,湖南省岳阳市岳阳楼区岳阳楼区3517厂,1
540,岳阳楼街道3517家属区,113.098633,29.380859,岳阳楼街道3517家属区,湖南省岳阳市岳阳楼区岳阳楼街道3517家属区,1
541,税务新村,113.133957,29.37529,税务新村,湖南省岳阳市岳阳楼区建湘路税务新村,1
542,,113.169121,29.395741,梅溪乡验收村,湖南省岳阳市岳阳楼区梅溪乡验收村,1
543,沿湖梦泽花城,113.115089,29.398968,沿湖梦泽花城,湖南省岳阳市岳阳楼区洞庭办事处沿湖梦泽花城,1
544,九华山,113.102112,29.390644,九华山,湖南省岳阳市岳阳楼区洞庭北路九华山,1
545,炮台山家属楼,113.11087,29.3687,炮台山家属楼,湖南省岳阳市岳阳楼区炮台山家属楼,1
546,炮台山宾馆,113.111427,29.369576,炮台山宾馆,湖南省岳阳市岳阳楼区炮台山宾馆,1
547,鄢家冲社区居委会,113.091789,29.36673,鄢家冲社区居委会,湖南省岳阳市岳阳楼区鄢家冲社区居委会,1
548,万家坡居委会,113.107979,29.363119,万家坡居委会,湖南省岳阳市岳阳楼区金鹗山办事处万家坡居委会,1
549,金鹗山办事处人防办,113.115608,29.355591,金鹗山办事处人防办,湖南省岳阳市岳阳楼区金鹗山办事处人防办,2
550,夏万路居委会,113.107979,29.363119,夏万路居委会,湖南省岳阳市岳阳楼区金鹗山街道夏万路居委会,1
551,东茅岭街道土桥155号,113.117371,29.370609,东茅岭街道土桥155号,湖南省岳阳市岳阳楼区东茅岭街道土桥155号,4
552,天伦城,113.128708,29.36058,天伦城,湖南省岳阳市岳阳楼区五里牌街道天伦城,1
553,芋头田居委会,113.095062,29.365641,芋头田居委会,湖南省岳阳市岳阳楼区吕仙亭街道芋头田居委会,1
554,四化建公司宿舍西区,113.132004,29.36482,四化建公司宿舍西区,湖南省岳阳市岳阳楼区四化建公司宿舍西区,1
555,老杨组,113.14682,29.37159,老杨组,湖南省岳阳市岳阳楼区洛王街道老杨组,1
556,泰和酒店,112.891533,28.685841,泰和酒店,湖南省岳阳市岳阳楼区泰和酒店,1
557,,113.160591,29.377081,洛王街道大桥组,湖南省岳阳市岳阳楼区洛王街道大桥组,3
558,炮台山宾馆家属区,113.111427,29.369576,炮台山宾馆家属区,湖南省岳阳市岳阳楼区东茅岭街道炮台山宾馆家属区,1
559,东风广场青年路救助站,113.102783,29.367201,东风广场青年路救助站,湖南省岳阳市岳阳楼区东风广场青年路救助站,2
560,天伦国际,113.129303,29.36713,天伦国际,湖南省岳阳市岳阳楼区五里牌街道天伦国际,2
561,望岳路鹰山社区,113.127907,29.38184,望岳路鹰山社区,湖南省岳阳市岳阳楼区望岳路鹰山社区,1
562,琵琶王社区许家坡,113.143791,29.369787,琵琶王社区许家坡,湖南省岳阳市岳阳楼区枫桥湖街道琵琶王社区许家坡,1
563,圣大珑庭,113.115578,29.400221,圣大珑庭,湖南省岳阳市岳阳楼区洞庭街道圣大珑庭,1
564,长江航道宿舍,113.15889,29.43609,长江航道宿舍,湖南省岳阳市岳阳楼区城陵矶街道长江航道宿舍,1
565,电力大厦,113.127998,29.37413,电力大厦,湖南省岳阳市岳阳楼区站前路街道电力大厦,1
566,四化建家属区,113.132004,29.36482,四化建家属区,湖南省岳阳市岳阳楼区五里牌街道四化建家属区,1
567,青螺小区,113.11554,29.381729,青螺小区,湖南省岳阳市岳阳楼区枫桥湖街道青螺小区,1
568,,112.490669,29.62484,五谷庙村,湖南省岳阳市华容县万庾镇五谷庙村,1
569,,112.915009,29.69215,东山乡长宁村,湖南省岳阳市华容县东山乡长宁村,1
570,,112.496269,29.413931,新河乡十三刀村,湖南省岳阳市华容县新河乡十三刀村,1
571,,112.551865,29.534977,书院路农家巷,湖南省岳阳市华容县章华镇书院路农家巷,1
572,北岸尚品小区,112.551865,29.534977,北岸尚品小区,湖南省岳阳市华容县章华镇北岸尚品小区,1
573,李家湖超市,112.583588,29.53064,李家湖超市,湖南省岳阳市华容县章华镇李家湖超市,2
574,治湖小区,112.551865,29.534977,治湖小区,湖南省岳阳市华容县章华镇治湖小区,1
575,,112.529922,29.532631,治湖村,湖南省岳阳市华容县章华镇治湖村,1
576,,112.629906,29.573444,胜峰乡凤行村,湖南省岳阳市华容县章华镇胜峰乡凤行村,1
577,,112.735008,29.56263,红莲村,湖南省岳阳市华容县三封寺镇红莲村,2
578,,112.636398,29.419901,蓼兰村,湖南省岳阳市华容县禹山镇蓼兰村,1
579,移民小区,112.55336,29.533014,移民小区,湖南省岳阳市华容县章华镇移民小区,1
580,五里街道大市场球场,113.46241,29.474609,五里街道大市场球场,湖南省岳阳市临湘市五里街道大市场球场,3
581,,113.646721,29.58602,万峰村,湖南省岳阳市临湘市坦渡镇万峰村,1
582,,113.571068,29.480459,如斯村,湖南省岳阳市临湘市羊楼司镇如斯村,1
583,,113.574959,29.57069,石壁村,湖南省岳阳市临湘市羊楼司镇石壁村,1
584,,113.607849,29.32152,詹桥乡水泉村,湖南省岳阳市临湘市詹桥乡水泉村,1
585,童之梦幼儿园,113.45058,29.47684,童之梦幼儿园,湖南省岳阳市临湘市五里牌街道童之梦幼儿园,1
586,,113.679848,29.62789,坦渡镇坦渡大李组,湖南省岳阳市临湘市坦渡镇坦渡大李组,2
587,童之梦幼儿园旁,113.45058,29.47684,童之梦幼儿园旁,湖南省岳阳市临湘市五里牌街道童之梦幼儿园旁,1
588,副食公司家属区,113.46241,29.474609,副食公司家属区,湖南省岳阳市临湘市五里街道副食公司家属区,1
589,,113.709183,29.569839,晓阳村,湖南省岳阳市临湘市坦渡乡晓阳村,1
590,菜业组,113.004913,29.443821,菜业组,湖南省岳阳市君山区柳林洲镇菜业组,1
591,西城办事处松湖居委会,113.058258,29.42337,西城办事处松湖居委会,湖南省岳阳市君山区西城办事处松湖居委会,1
592,钱粮湖东北湖渔场,112.702133,29.43928,钱粮湖东北湖渔场,湖南省岳阳市君山区钱粮湖东北湖渔场,1
593,松湖居委会,113.058258,29.42337,松湖居委会,湖南省岳阳市君山区西城街道松湖居委会,1
594,,113.005066,29.443857,柳林洲街道,湖南省岳阳市君山区双元村柳林洲街道,1
595,,113.294861,29.43553,团结村,湖南省岳阳市云溪区云溪镇团结村,3
596,岳化安居社区冬苑,113.283119,29.46171,岳化安居社区冬苑,湖南省岳阳市云溪区岳化安居社区冬苑,1
597,岳化社区哨所路,113.283745,29.461788,岳化社区哨所路,湖南省岳阳市云溪区岳化社区哨所路,1
598,岳化社区安居园夏苑,113.283089,29.462761,岳化社区安居园夏苑,湖南省岳阳市云溪区岳化社区安居园夏苑,1
599,凌泊湖砖瓦厂,113.20298,29.483288,凌泊湖砖瓦厂,湖南省岳阳市云溪区松杨湖街道凌泊湖砖瓦厂,1
600,双花村邓家组,113.34362,29.4653,双花村邓家组,湖南省岳阳市云溪区云溪街道双花村邓家组,1
601,金盆社区三区,113.2995,29.462568,金盆社区三区,湖南省岳阳市云溪区云溪街道金盆社区三区,1
602,汪家岭社区,113.284714,29.4683,汪家岭社区,湖南省岳阳市云溪区云溪街道汪家岭社区,1
603,邓家组,113.34362,29.4653,邓家组,湖南省岳阳市云溪区双花村云溪街道邓家组,1
604,,112.525932,28.653191,毛角村,湖南省岳阳市湘阴县南湖州镇毛角村,1
605,,112.750153,28.527941,岭北铁角嘴大仑村,湖南省岳阳市湘阴县岭北铁角嘴大仑村,1
606,,112.743011,28.61347,东港乡大友村,湖南省岳阳市湘阴县岭北镇东港乡大友村,1
607,,112.887657,28.645559,洋沙湖片区金和村,湖南省岳阳市湘阴县文星镇洋沙湖片区金和村,1
608,,112.870247,28.75247,白泥湖乡横潭村,湖南省岳阳市湘阴县白泥湖乡横潭村,1
609,,112.564262,28.66029,谷贻村,湖南省岳阳市湘阴县南湖洲镇谷贻村,1
610,白沙社区,112.90358,28.685221,白沙社区,湖南省岳阳市湘阴县文星镇白沙社区,1
611,,113.261162,28.90732,金河村,湖南省岳阳市汨罗市大荆镇金河村,1
612,,113.019096,28.623131,西北村,湖南省岳阳市汨罗市川山坪镇西北村,1
613,,113.068466,28.954929,三彩村,湖南省岳阳市汨罗市桃林寺镇三彩村,1
614,,113.15448,28.65764,云山神村,湖南省岳阳市汨罗市神鼎山镇云山神村,2
615,,112.972031,29.009529,磊石乡长山村,湖南省岳阳市汨罗市白塘镇磊石乡长山村,1
616,,113.767433,28.976891,崇义村,湖南省岳阳市平江县南江镇崇义村,1
617,,113.58065,28.703966,东街,湖南省岳阳市平江县城关镇东街,1
618,邮电宿舍,113.581093,28.70384,邮电宿舍,湖南省岳阳市平江县汉昌镇邮电宿舍,2
619,,113.670143,28.57856,白毛村,湖南省岳阳市平江县安定镇白毛村,1
620,,113.710083,28.51405,福和村,湖南省岳阳市平江县福寿山镇福和村,1
621,天岳加油站对面众通汽贸店楼上,113.589844,28.687017,天岳加油站对面众通汽贸店楼上,湖南省岳阳市平江县汉昌镇天岳加油站对面众通汽贸店楼上,1
622,金蓝湾,113.576874,28.70093,金蓝湾,湖南省岳阳市平江县汉昌镇金蓝湾,1
623,印塘乡段家湾村,112.143311,27.38991,印塘乡段家湾村,湖南省娄底市双峰县印塘乡段家湾村,1
624,嘉信华庭小区,112.181938,27.44599,嘉信华庭小区,湖南省娄底市双峰县嘉信华庭小区,1
625,永丰中学家属区,112.205482,27.45903,永丰中学家属区,湖南省娄底市双峰县永丰中学家属区,4
626,永丰街道五里牌居委会,112.177361,27.448721,永丰街道五里牌居委会,湖南省娄底市双峰县永丰街道五里牌居委会,1
627,永丰街道诸家村,112.194183,27.44866,永丰街道诸家村,湖南省娄底市双峰县永丰街道诸家村,1
628,甘棠镇大富村,112.026337,27.48031,甘棠镇大富村,湖南省娄底市双峰县甘棠镇大富村,1
629,甘棠镇香花村,111.975441,27.42898,甘棠镇香花村,湖南省娄底市双峰县甘棠镇香花村,1
630,老国税局家属,112.172989,27.459681,老国税局家属,湖南省娄底市双峰县老国税局家属,1
631,蔡和森大道557号,112.194328,27.46406,蔡和森大道557号,湖南省娄底市双峰县蔡和森大道557号,4
632,青树坪镇卫星村,112.069939,27.370871,青树坪镇卫星村,湖南省娄底市双峰县青树坪镇卫星村,1
633,青树坪镇望日村,112.084267,27.388639,青树坪镇望日村,湖南省娄底市双峰县青树坪镇望日村,1
634,青树坪镇红星村,112.041435,27.382401,青树坪镇红星村,湖南省娄底市双峰县青树坪镇红星村,1
635,双江乡农新村,111.987328,27.871389,双江乡农新村,湖南省娄底市娄星区双江乡农新村,1
636,杉山镇石底村,111.974854,27.7945,杉山镇石底村,湖南省娄底市娄星区杉山镇石底村,1
637,盛世华庭,111.989037,27.703489,盛世华庭,湖南省娄底市娄星区盛世华庭,4
638,石井镇松江村,111.929787,27.76741,石井镇松江村,湖南省娄底市娄星区石井镇松江村,1
639,大同芙蓉,112.02152,27.72705,大同芙蓉,湖南省娄底市娄星区东贸街229号,1
640,蛇形山镇越新村,112.0017,27.72978,蛇形山镇越新村,湖南省娄底市娄星区蛇形山镇越新村居民委员会,2
641,坐石乡新河村,111.500702,27.9573,坐石乡新河村,湖南省娄底市新化县坐石乡新河村,1
642,孟公镇红星村,111.166367,27.895201,孟公镇红星村,湖南省娄底市新化县孟公镇红星村,1
643,槎溪镇兴石岭村,111.150993,27.64502,槎溪镇兴石岭村,湖南省娄底市新化县槎溪镇兴石岭村,2
644,槎溪镇白马桥村,111.143494,27.62484,槎溪镇白马桥村,湖南省娄底市新化县槎溪镇白马桥村,2
645,洋溪镇建新村,111.249123,27.702391,洋溪镇建新村,湖南省娄底市新化县洋溪镇建新村,2
646,洋溪镇新联村,111.183037,27.665751,洋溪镇新联村,湖南省娄底市新化县洋溪镇新联村,1
647,炉观镇口前村,111.211189,27.72913,炉观镇口前村,湖南省娄底市新化县炉观镇口前村,1
648,炉观镇白娥村,111.185921,27.768641,炉观镇白娥村,湖南省娄底市新化县炉观镇白娥村,1
649,琅塘镇团结山村,111.116432,27.970091,琅塘镇团结山村,湖南省娄底市新化县琅塘镇团结山村,1
650,三尖镇三尖村,111.394753,27.591419,三尖镇三尖村,湖南省娄底市冷水江市三尖镇三尖村,2
651,中连乡余元村,111.410622,27.708321,中连乡余元村,湖南省娄底市冷水江市中连乡余元村,1
652,中连乡金瓶村,111.432381,27.717251,中连乡金瓶村,湖南省娄底市冷水江市中连乡金瓶村,1
653,冷水江街道冷金居委会,111.439613,27.690981,冷水江街道冷金居委会,湖南省娄底市冷水江市冷水江街道冷金居委会,1
654,冷水江街道铁厂一生活区,111.437988,27.68605,冷水江街道铁厂一生活区,湖南省娄底市冷水江市冷水江街道铁厂一生活区,1
655,沙塘湾街道王坪居委会,111.479683,27.61928,沙塘湾街道王坪居委会,湖南省娄底市冷水江市沙塘湾街道王坪居委会,1
656,渣渡镇木瓜村,111.57386,27.71767,渣渡镇木瓜村,湖南省娄底市冷水江市渣渡镇木瓜村,3
657,禾青镇里福村,111.434952,27.607849,禾青镇里福村,湖南省娄底市冷水江市禾青镇里福村,2
658,禾青镇铜钟村,111.385887,27.622721,禾青镇铜钟村,湖南省娄底市冷水江市禾青镇铜钟村,2
659,铎山镇塘冲村,111.595871,27.666651,铎山镇塘冲村,湖南省娄底市冷水江市铎山镇塘冲村,1
660,伏口镇松山村,111.766891,27.975161,伏口镇松山村,湖南省娄底市涟源市伏口镇松山村,1
661,枫坪镇枫坪村,111.778,27.63579,枫坪镇枫坪村,湖南省娄底市涟源市枫坪镇枫坪村,1
662,桥头河镇工人路,111.863068,27.81588,桥头河镇工人路,湖南省娄底市涟源市桥头河镇工人路,1
663,石马山镇黄栗村,111.797691,27.7057,石马山镇黄栗村,湖南省娄底市涟源市石马山镇黄栗村,1
664,金石镇双合村,111.964439,27.529881,金石镇双合村,湖南省娄底市涟源市金石镇双合村,1
665,金石镇双泉村,111.978462,27.53343,金石镇双泉村,湖南省娄底市涟源市金石镇双泉村,1
666,金石镇坝塘村,111.925179,27.48061,金石镇坝塘村,湖南省娄底市涟源市金石镇坝塘村,1
667,金石镇栗坪村,111.908043,27.50536,金石镇栗坪村,湖南省娄底市涟源市金石镇栗坪村,1
668,龙塘镇马方村,111.712593,27.82815,龙塘镇马方村,湖南省娄底市涟源市龙塘镇马方村,1
669,金石镇常林村,111.952522,27.566441,金石镇常林村,湖南省娄底市涟源市金石镇常林村,2
670,巴黎馨苑,112.368843,28.58283,巴黎馨苑,湖南省益阳市赫山区巴黎馨苑,1
671,,112.320969,28.34955,九皇殿村,湖南省益阳市赫山区泥江口镇九皇殿村,1
672,碧波豪苑,112.356026,28.588274,碧波豪苑,湖南省益阳市赫山区碧波豪苑,1
673,,111.955727,28.648279,胡家坳村,湖南省益阳市桃江县三堂街镇胡家坳村,1
674,,111.942787,28.392099,龙塘湾村,湖南省益阳市桃江县鸬鹚渡镇龙塘湾村,1
675,,111.803047,28.392941,合振村,湖南省益阳市安化县长塘镇合振村,1
676,永兴社区,111.102638,28.035999,永兴社区,湖南省益阳市安化县平口镇永兴社区,1
677,,112.424103,29.3603,大洲村,湖南省益阳市南县南洲镇大洲村,1
678,,112.409492,29.36278,宝塔湖村,湖南省益阳市南县南洲镇宝塔湖村,1
679,小河堰社区,112.386436,29.35285,小河堰社区,湖南省益阳市南县南洲镇小河堰社区,1
680,花甲社区,112.403053,29.37879,花甲社区,湖南省益阳市南县南洲镇花甲社区,1
681,,112.298393,29.45207,揭家村,湖南省益阳市南县浪拔湖镇揭家村,1
682,滨江花园,112.426369,29.365919,滨江花园,湖南省益阳市南县滨江花园,1
683,畜牧水产局家属楼,112.40287,29.36903,畜牧水产局家属楼,湖南省益阳市南县畜牧水产局家属楼,1
684,,112.345428,29.15691,烈士桥村,湖南省益阳市南县三仙湖镇烈士桥村,1
685,浪拔湖社区,112.347618,29.419029,浪拔湖社区,湖南省益阳市南县浪拔湖镇浪拔湖社区,1
686,,112.332291,29.097639,新尚村,湖南省益阳市南县茅草街镇新尚村,1
687,五环小区,112.350868,28.565359,五环小区,湖南省益阳市益阳高新区五环小区,1
688,益阳碧桂园小区,112.380996,28.529922,益阳碧桂园小区,湖南省益阳市益阳高新区益阳碧桂园小区,1
689,银色现代城,112.355927,28.56365,银色现代城,湖南省益阳市益阳高新区银色现代城,1
690,,112.713593,29.012119,南大社区,湖南省益阳市沅江市南大膳镇南大社区,1
691,,112.641312,28.971621,三洲嘴村,湖南省益阳市沅江市泗湖山镇三洲嘴村,1
692,金福现代小区,112.35453,28.835899,金福现代小区,湖南省益阳市沅江市琼湖街道金福现代小区,1
693,,112.451187,29.00741,永新村,湖南省益阳市沅江市草尾镇永新村,1
694,草尾社区,112.374809,29.039169,草尾社区,湖南省益阳市沅江市草尾镇草尾社区,1
695,鹭鸶湖渔场,112.575844,29.05121,鹭鸶湖渔场,湖南省益阳市沅江市阳罗洲镇鹭鸶湖渔场,1
696,,112.584923,28.98102,志成村,湖南省益阳市沅江市黄茅洲镇志成村,1
697,,112.429993,28.987301,三码头村,湖南省益阳市沅江市草尾镇三码头村,1
698,奇瑞BOBO城H区,118.397308,31.46122,奇瑞BOBO城H区,安徽省芜湖市经开区奇瑞BOBO城H区,2
699,华盛小区,118.363792,31.326241,华盛小区,安徽省芜湖市镜湖区七更点社区华盛小区,1
700,绿地伊顿公馆,118.411118,31.330208,绿地伊顿公馆,安徽省芜湖市镜湖区凯旋社区绿地伊顿公馆,3
701,白金湾小区,118.386787,31.33835,白金湾小区,安徽省芜湖市镜湖区文化路社区白金湾小区,1
702,绿地6号地块C区,118.415482,31.32761,绿地6号地块C区,安徽省芜湖市镜湖区海南渡社区绿地6号地块C区,1
703,六桥自然村,118.55751,31.064831,六桥自然村,安徽省芜湖市芜湖县红杨镇红杨树社区六桥自然村,1
704,新世纪花园,118.34079,30.91469,新世纪花园,安徽省芜湖市南陵县新世纪花园,1
705,天禧楼小区,118.349083,30.9191,天禧楼小区,安徽省芜湖市南陵县籍山镇东门大桥天禧楼小区,1
706,金都檀宫小区,118.471642,31.330521,金都檀宫小区,安徽省芜湖市鸠江区清水街道金都檀宫小区,1
707,西梁山危化品锚地,118.40807,31.46785,西梁山危化品锚地,安徽省芜湖市鸠江区龙山街道西梁山危化品锚地,1
708,江岸明珠,118.370056,31.316469,江岸明珠,安徽省芜湖市弋江区中南街道江岸明珠,1
709,江城国际瑞华苑,118.394119,31.301571,江城国际瑞华苑,安徽省芜湖市弋江区南瑞街道江城国际瑞华苑,1
710,江岸明珠小区,118.370056,31.316469,江岸明珠小区,安徽省芜湖市弋江区江岸明珠小区,1
711,响山中学,117.798828,31.443069,响山中学,安徽省芜湖市无为市严桥镇响山中学,1
712,金河小区,117.90554,31.30776,金河小区,安徽省芜湖市无为市无城镇凤河路金河小区,1
713,府苑小区,117.899757,31.305161,府苑小区,安徽省芜湖市无为市无城镇府苑小区,4
714,薛巷自然村,118.079422,31.416241,薛巷自然村,安徽省芜湖市无为市陡沟镇凤凰桥社区薛巷自然村,1
715,健博花园小区,118.013237,31.356199,健博花园小区,安徽省芜湖市无为市陡沟镇陡沟社区健博花园小区,1
716,陈一自然村,117.733818,31.094391,陈一自然村,安徽省芜湖市无为市洪巷镇青岗行政村陈一自然村,2
717,东湖自然村,117.925491,31.125076,东湖自然村,安徽省芜湖市无为市高沟镇健全行政村东湖自然村,1
718,羊场自然村,117.747643,31.29076,羊场自然村,安徽省芜湖市无为市开城镇羊山行政村羊场自然村,1
719,二监宿舍小区,117.03791,30.511669,二监宿舍小区,安徽省安庆市大观区关岳庙街二监宿舍小区,2
720,菱建小区,117.066719,30.53948,菱建小区,安徽省安庆市经开区菱北街道菱建小区,1
721,香樟里小区,117.060242,30.53582,香樟里小区,安徽省安庆市经开区菱北街道香樟里小区,1
722,景湖嘉苑小区,117.073341,30.53089,景湖嘉苑小区,安徽省安庆市经开区景湖嘉苑小区,2
723,计渡村石闸三组,116.715263,30.08602,计渡村石闸三组,安徽省安庆市望江县华阳镇计渡村石闸三组,1
724,兴龙村,116.787109,30.351545,兴龙村,安徽省安庆市望江县赛口镇兴龙村,1
725,后埠村同东屋,116.588409,30.237921,后埠村同东屋,安徽省安庆市望江县长岭镇后埠村同东屋,1
726,中心村桥头组,116.429749,30.513041,中心村桥头组,安徽省安庆市太湖县小池镇中心村桥头组,2
727,金鸡村蔡榜组,116.398758,30.429199,金鸡村蔡榜组,安徽省安庆市太湖县新仓镇金鸡村蔡榜组,1
728,天高财富广场,116.323341,30.4454,天高财富广场,安徽省安庆市太湖县晋熙镇天高财富广场,1
729,双港镇民畈村新民组,116.971893,30.783581,双港镇民畈村新民组,安徽省安庆市桐城市双港镇双港镇民畈村新民组,1
730,潘赛村西瓜组,116.998283,30.80192,潘赛村西瓜组,安徽省安庆市桐城市双港镇潘赛村西瓜组,1
731,公园社区粮食局宿舍,116.952034,31.054087,公园社区粮食局宿舍,安徽省安庆市桐城市文昌街道公园社区粮食局宿舍,1
732,石河村大隔组,116.946793,31.030359,石河村大隔组,安徽省安庆市桐城市文昌街道石河村大隔组,1
733,双墩村合胜组,116.845917,30.817221,双墩村合胜组,安徽省安庆市桐城市新渡镇双墩村合胜组,1
734,罗潭村罗潭组,116.889099,30.849789,罗潭村罗潭组,安徽省安庆市桐城市新渡镇罗潭村罗潭组,1
735,棋盘岭村张老屋队,116.908012,30.939409,棋盘岭村张老屋队,安徽省安庆市桐城市范岗镇棋盘岭村张老屋队,1
736,碧桂园小区,116.972771,31.06056,碧桂园小区,安徽省安庆市桐城市龙眠街道碧桂园小区,1
737,长生社区三隔组,116.972771,31.06056,长生社区三隔组,安徽省安庆市桐城市龙眠街道长生社区三隔组,1
738,阅城国际小区,116.965897,31.044289,阅城国际小区,安徽省安庆市桐城市龙眠街道阅城国际小区,1
739,黄燕村横排组,116.888329,31.104891,黄燕村横排组,安徽省安庆市桐城市龙眠街道黄燕村横排组,1
740,新民组,116.971893,30.783581,新民组,安徽省安庆市桐城市双港镇民畈村新民组,1
741,程西组,116.892921,30.92424,程西组,安徽省安庆市桐城市新渡镇永久村程西组,1
742,银杏花园小区,116.943764,30.819349,银杏花园小区,安徽省安庆市桐城市银杏花园小区,1
743,环湖村桂咀组,116.102631,29.994511,环湖村桂咀组,安徽省安庆市宿松县佐坝乡环湖村桂咀组,1
744,碧岭村徐岭组,116.104149,30.110281,碧岭村徐岭组,安徽省安庆市宿松县佐坝乡碧岭村徐岭组,1
745,马厂村曹湾组,115.952881,30.381269,马厂村曹湾组,安徽省安庆市宿松县北浴乡马厂村曹湾组,1
746,套口村五社组,116.536499,29.906719,套口村五社组,安徽省安庆市宿松县复兴镇套口村五社组,1
747,光明社区棉麻新居小区,116.117973,30.164869,光明社区棉麻新居小区,安徽省安庆市宿松县孚玉镇光明社区棉麻新居小区,1
748,团结村新埂组,116.269852,29.864571,团结村新埂组,安徽省安庆市宿松县汇口镇团结村新埂组,1
749,雪镇村阳田组,116.170883,30.226471,雪镇村阳田组,安徽省安庆市宿松县破凉镇雪镇村阳田组,1
750,马塘村余西组,116.184357,30.179251,马塘村余西组,安徽省安庆市宿松县长铺镇马塘村余西组,1
751,梨园新村小区,116.126556,30.153099,梨园新村小区,安徽省安庆市宿松县孚玉镇梨园新村小区,1
752,百华村何洼组,117.008202,30.626539,百华村何洼组,安徽省安庆市宜秀区大龙山镇百华村何洼组,1
753,大枫村大塘组,117.125908,30.612429,大枫村大塘组,安徽省安庆市宜秀区白泽湖乡大枫村大塘组,1
754,琥珀村琥珀组,115.911377,30.739679,琥珀村琥珀组,安徽省安庆市岳西县冶溪镇琥珀村琥珀组,1
755,下坊村宁畈组,115.944267,30.87841,下坊村宁畈组,安徽省安庆市岳西县古坊乡下坊村宁畈组,1
756,城东社区小城宝邸小区,116.37159,30.85018,城东社区小城宝邸小区,安徽省安庆市岳西县天堂镇城东社区小城宝邸小区,1
757,阳光小区,116.369392,30.84519,阳光小区,安徽省安庆市岳西县天堂镇阳光小区,1
758,店前村李屋组,116.01458,30.72666,店前村李屋组,安徽省安庆市岳西县店前镇店前村李屋组,1
759,皖源村河湾组,115.988853,30.91498,皖源村河湾组,安徽省安庆市岳西县河图镇皖源村河湾组,1
760,余河村粮油组,115.914558,30.812019,余河村粮油组,安徽省安庆市岳西县白帽镇余河村粮油组,1
761,御景国际小区,117.053482,30.51236,御景国际小区,安徽省安庆市迎江区华中路街道御景国际小区,1
762,碧桂园1号公园小区,117.043861,30.507849,碧桂园1号公园小区,安徽省安庆市迎江区滨江街道碧桂园1号公园小区,1
763,碧桂园1号公园小区,117.043861,30.507849,碧桂园1号公园小区,安徽省安庆市迎江区碧桂园1号公园小区,1
764,水岸江南B区,116.584976,30.636589,水岸江南B区,安徽省安庆市潜山市梅城镇水岸江南B区,1
765,田墩新村,116.680588,30.89422,田墩新村,安徽省安庆市潜山市源潭镇田墩新村,1
766,双湖村庙兴组,116.940315,30.733,双湖村庙兴组,安徽省安庆市怀宁县凉亭乡双湖村庙兴组,1
767,双湖村珠林组,116.931808,30.74357,双湖村珠林组,安徽省安庆市怀宁县凉亭乡双湖村珠林组,1
768,鹿苑村双桂组,116.736473,30.73918,鹿苑村双桂组,安徽省安庆市怀宁县马庙镇鹿苑村双桂组,1
769,高楼村团结组,116.774071,30.61282,高楼村团结组,安徽省安庆市怀宁县黄墩镇高楼村团结组,1
770,黄梅阁小区,116.829933,30.72366,黄梅阁小区,安徽省安庆市怀宁县高河镇黄梅阁小区,1
771,新建组,116.70359,30.403151,新建组,安徽省安庆市怀宁县石牌镇广丰村新建组,4
772,胜天组,116.652206,30.4627,胜天组,安徽省安庆市怀宁县平山镇鸣凤村胜天组,1
773,广丰村中心组,116.70359,30.403151,广丰村中心组,安徽省安庆市怀宁县石牌镇广丰村中心组,1
774,同济花园,118.515831,31.706181,同济花园,安徽省马鞍山市花山区同济花园,1
775,泰和天成,118.512253,31.655371,泰和天成,安徽省马鞍山市雨山区泰和天成,3
776,红旗花园,118.494743,31.696871,红旗花园,安徽省马鞍山市雨山区红旗花园,3
777,阳光城,118.593468,31.662146,阳光城,安徽省马鞍山市雨山区阳光城,1
778,,118.606033,31.307631,黄池镇,安徽省马鞍山市当涂县黄池镇,1
779,,118.19442,31.571051,功桥镇,安徽省马鞍山市和县功桥镇,2
780,,118.308609,31.528959,白桥镇,安徽省马鞍山市和县白桥镇,10
781,,118.291496,31.76877,西埠镇,安徽省马鞍山市和县西埠镇,1
782,,118.325851,31.87038,香泉镇,安徽省马鞍山市和县香泉镇,1
783,,115.398758,33.448589,赵大行政村赵寨村,安徽省阜阳市界首市邴集乡赵大行政村赵寨村,1
784,中泰名城小区,115.810028,32.923592,中泰名城小区,安徽省阜阳市颍泉区中市街道办事处中泰名城小区,1
785,四中家属院,115.808884,32.944118,四中家属院,安徽省阜阳市颍泉区中市街道办事处四中家属院,1
786,海亮上府小区,115.809036,32.930191,海亮上府小区,安徽省阜阳市颍泉区中市街道办事处海亮上府小区,1
787,周棚居委会,115.852142,32.991619,周棚居委会,安徽省阜阳市颍泉区周棚街道办事处周棚居委会,1
788,祥和居小区,115.794037,32.94722,祥和居小区,安徽省阜阳市颍泉区泉颍办事处祥和居小区,1
789,,115.67382,33.0853,杨桥村,安徽省阜阳市颍泉区行流镇杨桥村,1
790,依心明园,115.857208,32.866081,依心明园,安徽省阜阳市阜阳经济技术开发区依心明园,1
791,,115.519783,32.587383,孟寨村,安徽省阜阳市阜南县公桥乡孟寨村,1
792,,115.523804,32.858318,张楼村,安徽省阜阳市阜南县新村镇张楼村,1
793,,115.54969,32.89806,梁寨村,安徽省阜阳市阜南县新村镇梁寨村,1
794,,115.579079,32.87743,白营村,安徽省阜阳市阜南县新村镇白营村,1
795,,115.531929,32.867481,鑫东村,安徽省阜阳市阜南县新村镇鑫东村,1
796,,115.926582,32.697578,闵庄村,安徽省阜阳市阜南县朱寨镇闵庄村,1
797,,115.591187,32.812359,柴集村,安徽省阜阳市阜南县柴集镇柴集村,1
798,,115.580994,32.45602,钐岗村,安徽省阜阳市阜南县洪河桥镇钐岗村,1
799,,115.629539,32.43787,和谐村,安徽省阜阳市阜南县王家坝镇和谐村,1
800,,115.552078,32.833351,五岳村,安徽省阜阳市阜南县王店孜乡五岳村,1
801,,115.513718,32.80658,刘郢村,安徽省阜阳市阜南县王店孜乡刘郢村,1
802,,115.504272,32.779041,周集村,安徽省阜阳市阜南县王店孜乡周集村,1
803,,115.555656,32.822769,王寨村,安徽省阜阳市阜南县王店孜乡王寨村,1
804,,115.568542,32.790199,高庄村,安徽省阜阳市阜南县王店孜乡高庄村,1
805,中央豪景小区,115.630417,32.65876,中央豪景小区,安徽省阜阳市阜南县经开区中央豪景小区,1
806,,115.660461,32.61784,桃园村,安徽省阜阳市阜南县苗集镇桃园村,1
807,,115.532753,32.67741,刘大郢,安徽省阜阳市阜南县赵集镇刘大郢,1
808,,115.5159,32.710091,刘集村,安徽省阜阳市阜南县赵集镇刘集村,1
809,,115.864098,32.565868,刘店村,安徽省阜阳市阜南县郜台乡刘店村,1
810,,115.525429,32.825878,王店孜高寨村,安徽省阜阳市阜南县王店孜高寨村,1
811,,115.712532,32.832829,新宅村,安徽省阜阳市颍州区三合镇新宅村,1
812,万达华府,115.818573,32.873211,万达华府,安徽省阜阳市颍州区文峰街道办事处万达社区万达华府,1
813,碧桂园,115.817612,32.925404,碧桂园,安徽省阜阳市颍州区文峰街道办事处三里岗社区碧桂园,1
814,博物馆巷,115.8256,32.89365,博物馆巷,安徽省阜阳市颍州区文峰街道办事处奎星社区博物馆巷,1
815,西城御景小区,115.795372,32.901859,西城御景小区,安徽省阜阳市颍州区颍西街道办事处西湖社区西城御景小区,1
816,马寨居委会,115.547997,32.926613,马寨居委会,安徽省阜阳市颍州区马寨乡马寨居委会,1
817,汇鑫小区,115.801964,32.89959,汇鑫小区,安徽省阜阳市颍州区鼓楼街道办事处双龙桥社区汇鑫小区,1
818,临泉路老师范学院院内,115.803192,32.89621,临泉路老师范学院院内,安徽省阜阳市颍州区鼓楼街道办事处白衣桥社区临泉路老师范学院院内,1
819,锦华第一郡小区,115.810089,32.863739,锦华第一郡小区,安徽省阜阳市颍州区清河街道办事处九里社区锦华第一郡小区,1
820,徽州家园小区,115.788559,32.90564,徽州家园小区,安徽省阜阳市颍州区颍西街道办事处城郊社区徽州家园小区,1
821,九鼎华苑小区,115.815567,32.860729,九鼎华苑小区,安徽省阜阳市颍州区清河街道办事处九里社区九鼎华苑小区,1
822,和谐佳苑小区,115.855995,32.894554,和谐佳苑小区,安徽省阜阳市颍东区东平社区和谐佳苑小区,1
823,,115.991203,32.886261,张庙村,安徽省阜阳市颍东区正午镇张庙村,1
824,,115.96032,32.929428,横山村,安徽省阜阳市颍东区正午镇横山村,1
825,,116.005653,32.921478,田楼村,安徽省阜阳市颍东区正午镇田楼村,1
826,京九新村,115.857613,32.913589,京九新村,安徽省阜阳市颍东区河东街道京九新村,1
827,,115.936699,32.844486,袁寨居委会,安徽省阜阳市颍东区袁寨镇袁寨居委会,1
828,,115.893967,32.96003,新华街道,安徽省阜阳市颍东区新华街道办事处新华街道,1
829,,116.221336,32.509399,黄连沟村,安徽省阜阳市颍上县半岗镇黄连沟村,1
830,,116.371078,32.644089,夏桥社区,安徽省阜阳市颍上县夏桥镇夏桥社区,1
831,,116.15255,32.712742,建颍乡吴东村,安徽省阜阳市颍上县建颍乡吴东村,1
832,,116.28772,32.622372,下元东村,安徽省阜阳市颍上县慎城镇下元东村,1
833,,116.130707,32.74427,六联苏庄队,安徽省阜阳市颍上县新集镇六联苏庄队,1
834,,116.17112,32.804211,王李村,安徽省阜阳市颍上县江口镇王李村,1
835,,116.2528,32.783642,余联村李圩队,安徽省阜阳市颍上县古城镇余联村李圩队,1
836,一库安置区,116.260368,32.6432,一库安置区,安徽省阜阳市颍上县慎城镇一库安置区,1
837,,115.696327,33.337399,名利集,安徽省阜阳市太和县原墙镇名利集,1
838,太和世家,115.625381,33.166641,太和世家,安徽省阜阳市太和县城关镇太和世家,1
839,锦都花园,115.617607,33.177559,锦都花园,安徽省阜阳市太和县城关镇锦都花园,1
840,,115.464691,33.229099,孙楼行政村,安徽省阜阳市太和县税镇镇孙楼行政村,1
841,税南居委会,115.481491,33.226871,税南居委会,安徽省阜阳市太和县税镇镇税南居委会,1
842,聚鑫宾馆,115.623161,33.348808,聚鑫宾馆,安徽省阜阳市太和县马集乡马集村聚鑫宾馆,1
843,,115.479111,32.77541,运河行政村,安徽省阜阳市临泉县土陂乡运河行政村,1
844,,115.476303,32.799271,陈胡行政村,安徽省阜阳市临泉县土陂乡陈胡行政村,1
845,姜子牙广场北,115.26416,33.058472,姜子牙广场北,安徽省阜阳市临泉县城东街道姜子牙广场北,1
846,文王社区,115.265358,33.067463,文王社区,安徽省阜阳市临泉县城东街道文王社区,1
847,天祥小区西,115.26738,33.057362,天祥小区西,安徽省阜阳市临泉县城东街道港口路天祥小区西,1
848,老百货公司家属院,115.276657,33.062939,老百货公司家属院,安徽省阜阳市临泉县城东街道老百货公司家属院,1
849,戴祖寺行政村,115.260643,33.067829,戴祖寺行政村,安徽省阜阳市临泉县城关街道戴祖寺行政村,1
850,城关街道王关庙村,115.213127,33.066818,城关街道王关庙村,安徽省阜阳市临泉县城关街道王关庙村,1
851,银泉社区,115.26239,33.07008,银泉社区,安徽省阜阳市临泉县城关街道银泉社区,1
852,城南街道新城居委会,115.284668,33.046829,城南街道新城居委会,安徽省阜阳市临泉县城南街道新城居委会,1
853,新城社区,115.270111,33.042404,新城社区,安徽省阜阳市临泉县城南街道新城社区,1
854,紫薇苑小区,115.276657,33.062939,紫薇苑小区,安徽省阜阳市临泉县城南街道紫薇苑小区,1
855,,114.995369,32.98259,姜寨村,安徽省阜阳市临泉县姜寨镇姜寨村,1
856,,115.290878,32.817268,杨小街蒲庄大队,安徽省阜阳市临泉县宋集镇杨小街蒲庄大队,1
857,铜锣湾服饰门面房二楼,115.281082,32.823555,铜锣湾服饰门面房二楼,安徽省阜阳市临泉县宋集镇铜锣湾服饰门面房二楼,1
858,,115.341431,32.747238,朱集行政村,安徽省阜阳市临泉县滑集镇朱集行政村,1
859,,115.390602,32.741852,滑集村,安徽省阜阳市临泉县滑集镇滑集村,1
860,,115.150772,33.070499,姚集村,安徽省阜阳市临泉县白庙镇姚集村,1
861,,115.091316,33.069729,油坊村,安徽省阜阳市临泉县白庙镇油坊村,1
862,农商行家属楼,115.161034,32.920349,农商行家属楼,安徽省阜阳市临泉县迎仙镇农商行家属楼,1
863,,115.289017,32.941391,大田行政村,安徽省阜阳市临泉县长官镇大田行政村,1
864,,115.129829,32.97921,史寨行政村,安徽省阜阳市临泉县韦寨镇史寨行政村,1
865,,115.37442,32.897282,牛刘行政村,安徽省阜阳市临泉县高塘镇牛刘行政村,1
866,,115.03669,33.006699,流鞍行政村,安徽省阜阳市临泉县鲖城镇流鞍行政村,1
867,,114.988701,33.071972,鲖阳居委会,安徽省阜阳市临泉县鲖城镇鲖阳居委会,1
868,,115.152611,32.895538,郑寨行政村,安徽省阜阳市临泉县迎仙镇郑寨行政村,1
869,名邦国际花都,115.280998,33.04184,名邦国际花都,安徽省阜阳市临泉县城南街道名邦国际花都,1
870,,115.061478,33.06765,杨营行政村,安徽省阜阳市临泉县鲖城镇杨营行政村,1
871,凯旋名门3号楼,116.473282,31.735291,凯旋名门3号楼,安徽省六安市裕安区凯旋名门3号楼,1
872,华邦新华城,116.488112,31.753592,华邦新华城,安徽省六安市裕安区华邦新华城,1
873,帝都豪园13栋,116.484831,31.740378,帝都豪园13栋,安徽省六安市裕安区帝都豪园13栋,1
874,茶叶市场,116.51046,31.75309,茶叶市场,安徽省六安市裕安区独山镇茶叶市场,1
875,,116.215302,31.77474,黄大路村,安徽省六安市裕安区狮子岗黄大路村,1
876,祝张路黄莲村岗桥组,116.395813,31.633619,祝张路黄莲村岗桥组,安徽省六安市裕安区苏埠镇祝张路黄莲村岗桥组,1
877,,116.275757,31.557249,马林村,安徽省六安市裕安区西河口镇马林村,1
878,八字岗村汪冲组,116.392967,31.564301,八字岗村汪冲组,安徽省六安市裕安区青山乡八字岗村汪冲组,1
879,帝都豪园小区,116.485519,31.740459,帝都豪园小区,安徽省六安市裕安区西市街道帝都豪园小区,2
880,玉泉社区惠民小区,116.280357,32.338051,玉泉社区惠民小区,安徽省六安市霍邱县城关镇玉泉社区惠民小区,1
881,留城寺村老庄组,116.2192,32.181019,留城寺村老庄组,安徽省六安市霍邱县宋店乡留城寺村老庄组,1
882,马圩村学田组,116.02655,32.07423,马圩村学田组,安徽省六安市霍邱县开发区马圩村学田组,1
883,刘庙村北下组,116.029572,32.447578,刘庙村北下组,安徽省六安市霍邱县范桥镇刘庙村北下组,1
884,新桥村岗头组,116.064636,32.384109,新桥村岗头组,安徽省六安市霍邱县高塘镇新桥村岗头组,1
885,龙王庙村南楼组,115.952332,32.101681,龙王庙村南楼组,安徽省六安市霍邱县龙潭镇龙王庙村南楼组,1
886,,115.994057,32.193272,龙潭镇,安徽省六安市霍邱县龙潭镇,1
887,,116.306358,31.3624,通水灌村,安徽省六安市霍山县佛子岭镇通水灌村,1
888,上元街社区,116.316299,31.402969,上元街社区,安徽省六安市霍山县衡山镇上元街社区,1
889,南岳村,116.31189,31.395321,南岳村,安徽省六安市霍山县衡山镇南岳村,1
890,南潭社区,116.328957,31.40316,南潭社区,安徽省六安市霍山县衡山镇南潭社区,1
891,和顺花园D区,116.316299,31.402969,和顺花园D区,安徽省六安市霍山县衡山镇和顺花园D区,1
892,文峰社区,116.339005,31.397722,文峰社区,安徽省六安市霍山县衡山镇文峰社区,1
893,荷香社区,116.332268,31.401733,荷香社区,安徽省六安市霍山县衡山镇荷香社区,1
894,衡山社区,116.33297,31.39435,衡山社区,安徽省六安市霍山县衡山镇衡山社区,1
895,西大街社区,116.323128,31.406321,西大街社区,安徽省六安市霍山县衡山镇西大街社区,1
896,,116.227768,31.432659,新店河村,安徽省六安市霍山县黑石渡镇新店河村,1
897,儿街社区,116.44986,31.386,儿街社区,安徽省六安市霍山县与儿街镇儿街社区,1
898,山王河村,116.398468,31.429562,山王河村,安徽省六安市霍山县与儿街镇山王河村,1
899,,116.446907,31.38673,与儿街镇,安徽省六安市霍山县与儿街镇,1
900,,116.25528,31.3601,佛子岭镇,安徽省六安市霍山县佛子岭镇,2
901,,116.384804,31.424393,经济开发区,安徽省六安市霍山县经济开发区,1
902,,116.316299,31.402969,衡山镇,安徽省六安市霍山县衡山镇,5
903,,115.498207,31.49868,关庙村,安徽省六安市金寨县关庙乡关庙村,1
904,,115.640533,31.515394,南溪村,安徽省六安市金寨县南溪镇南溪村,1
905,吴家店镇街道,115.578339,31.283199,吴家店镇街道,安徽省六安市金寨县吴家店镇街道,1
906,姚冲村,115.645447,31.34622,姚冲村,安徽省六安市金寨县果子园乡姚冲村,1
907,明逸城小区,115.879089,31.677179,明逸城小区,安徽省六安市金寨县梅山镇明逸城小区,1
908,香港花园小区,115.940178,31.7222,香港花园小区,安徽省六安市金寨县梅山镇香港花园小区,1
909,豹迹岩村,115.581108,31.64352,豹迹岩村,安徽省六安市金寨县汤汇镇豹迹岩村,1
910,铁冲乡街道,115.681061,31.74375,铁冲乡街道,安徽省六安市金寨县铁冲乡街道,1
911,,115.587952,31.609301,汤家汇镇,安徽省六安市金寨县汤家汇镇,8
912,浙东商贸城D区,116.49753,31.74611,浙东商贸城D区,安徽省六安市金安区中市街道前进社区浙东商贸城D区,1
913,五十铺村士坤组,116.651924,31.583189,五十铺村士坤组,安徽省六安市金安区孙岗镇五十铺村士坤组,1
914,龙穴村张大郢组,116.66008,31.70269,龙穴村张大郢组,安徽省六安市金安区椿树镇龙穴村张大郢组,1
915,海心沙小区,116.5069,31.77944,海心沙小区,安徽省六安市金安区清水河街道刘园社区海心沙小区,1
916,,116.721687,31.687599,椿树镇,安徽省六安市金安区椿树镇,1
917,张公山二村对面郊区机关宿舍楼,117.331947,32.925079,张公山二村对面郊区机关宿舍楼,安徽省蚌埠市禹会区张公山街道张公山二村对面郊区机关宿舍楼,1
918,张公山北门制钉厂,117.341927,32.921089,张公山北门制钉厂,安徽省蚌埠市禹会区张公山街道张公山北门制钉厂,1
919,胜利公寓2栋,117.348953,32.938129,胜利公寓2栋,安徽省蚌埠市禹会区纬四街道胜利公寓2栋,1
920,锦绣香堤B区13栋,117.34844,32.91294,锦绣香堤B区13栋,安徽省蚌埠市禹会区钓鱼台街道锦绣香堤B区13栋,2
921,喜盈门二期,117.348862,32.913181,喜盈门二期,安徽省蚌埠市禹会区钓鱼台街道喜盈门二期,1
922,张公山派出所旁,117.333023,32.92635,张公山派出所旁,安徽省蚌埠市禹会区张公山派出所旁,1
923,张公山4村419栋,117.328888,32.921459,张公山4村419栋,安徽省蚌埠市禹会区张公山街道张公山4村419栋,1
924,张公山六村613栋,117.334274,32.922749,张公山六村613栋,安徽省蚌埠市禹会区张公山街道张公山六村613栋,2
925,怡康新都1栋,117.348862,32.928459,怡康新都1栋,安徽省蚌埠市禹会区朝阳街道怡康新都1栋,1
926,,117.210197,32.864189,胡圩村,安徽省蚌埠市禹会区马城镇胡圩村,2
927,新船塘小区3栋,117.349411,32.941181,新船塘小区3栋,安徽省蚌埠市禹会区纬四街道新船塘小区3栋,1
928,欧洲花园,117.322632,32.9272,欧洲花园,安徽省蚌埠市洪山区徐东村欧洲花园,1
929,东方新天地小区18栋,117.384521,32.948978,东方新天地小区18栋,安徽省蚌埠市龙子湖区东升街道东方新天地小区18栋,1
930,隆华小区2栋,117.373947,32.940353,隆华小区2栋,安徽省蚌埠市龙子湖区延安街道隆华小区2栋,1
931,长淮路270号水科新楼,117.376091,32.951801,长淮路270号水科新楼,安徽省蚌埠市龙子湖区治淮街道长淮路270号水科新楼,1
932,广厦小区2栋,117.389587,32.947708,广厦小区2栋,安徽省蚌埠市龙子湖区解放街道广厦小区2栋,2
933,东方新天地,117.384521,32.948978,东方新天地,安徽省蚌埠市龙子湖区东升街道东方新天地,1
934,交通路186号,117.3777,32.9488,交通路186号,安徽省蚌埠市龙子湖区东升街道交通路186号,1
935,中铁都市家园,117.386421,32.94083,中铁都市家园,安徽省蚌埠市龙子湖区延安街道中铁都市家园,1
936,延安一村,117.371269,32.949169,延安一村,安徽省蚌埠市龙子湖区延安街道延安一村,1
937,东苑小区,117.371567,32.9459,东苑小区,安徽省蚌埠市龙子湖区治淮街道东苑小区,1
938,延安三区,117.374878,32.948799,延安三区,安徽省蚌埠市龙子湖区治淮街道延安三区,1
939,淮河路854号,117.3741,32.94468,淮河路854号,安徽省蚌埠市龙子湖区治淮街道淮河路854号,1
940,广厦小区,117.389587,32.947708,广厦小区,安徽省蚌埠市龙子湖区解放街道广厦小区,2
941,金润名都,117.392487,32.94854,金润名都,安徽省蚌埠市龙子湖区解放街道金润名都,2
942,凤阳东路480号东单元,117.38519,32.94523,凤阳东路480号东单元,安徽省蚌埠市龙子湖区东升街道凤阳东路480号东单元,2
943,淮河路854号2单元,117.3741,32.94468,淮河路854号2单元,安徽省蚌埠市龙子湖区东风街道淮河路854号2单元,1
944,金润名都7栋,117.392487,32.94854,金润名都7栋,安徽省蚌埠市龙子湖区解放街道金润名都7栋,1
945,华阳淮畔小区7栋,117.381378,32.954498,华阳淮畔小区7栋,安徽省蚌埠市龙子湖区东升街道华阳淮畔小区7栋,1
946,延安一村2栋,117.372078,32.949157,延安一村2栋,安徽省蚌埠市龙子湖区治淮街道延安一村2栋,1
947,万达广场C区3号楼,117.359962,32.919636,万达广场C区3号楼,安徽省蚌埠市蚌山区宏业村街道万达广场C区3号楼,1
948,同乐园小区8号楼,117.362511,32.942032,同乐园小区8号楼,安徽省蚌埠市蚌山区青年街道同乐园小区8号楼,1
949,大舞台小区1栋,117.360939,32.94009,大舞台小区1栋,安徽省蚌埠市蚌山区青年街道大舞台小区1栋,1
950,新天地小区,117.358551,32.934551,新天地小区,安徽省蚌埠市蚌山区黄庄街道新天地小区,1
951,水游城B区7栋,117.396446,32.919155,水游城B区7栋,安徽省蚌埠市蚌山区黄庄街道水游城B区7栋,1
952,华利街9栋,117.365189,32.944221,华利街9栋,安徽省蚌埠市蚌山区青年街道华利街9栋,1
953,丰泽园小区4栋,117.357536,32.929668,丰泽园小区4栋,安徽省蚌埠市蚌山区黄庄街道丰泽园小区4栋,2
954,中平街62栋,117.36178,32.940278,中平街62栋,安徽省蚌埠市蚌山区青年街道中平街62栋,1
955,新新尚层,117.373077,32.933041,新新尚层,安徽省蚌埠市经开区淮河社区新新尚层,1
956,阿卡碧水湾小区,117.368279,32.924091,阿卡碧水湾小区,安徽省蚌埠市经开区淮河社区阿卡碧水湾小区,2
957,香堤荣府,117.385529,32.936581,香堤荣府,安徽省蚌埠市经开区淮河社区香堤荣府,1
958,恒大御景湾,117.398888,32.912521,恒大御景湾,安徽省蚌埠市经开区湖滨社区恒大御景湾,1
959,湖畔花都,117.377411,32.909981,湖畔花都,安徽省蚌埠市经开区湖滨社区湖畔花都,1
960,大塘名门,117.373238,32.93829,大塘名门,安徽省蚌埠市经开区胜利街道大塘名门,1
961,金融小区,117.378212,32.936897,金融小区,安徽省蚌埠市经开区胜利街道金融小区,1
962,华景家园,117.361687,32.933941,华景家园,安徽省蚌埠市经开区胜利街道华景家园,1
963,东航校小区25栋,117.372414,32.93705,东航校小区25栋,安徽省蚌埠市经开区胜利街道东航校小区25栋,2
964,,117.494492,32.964901,卫东村,安徽省蚌埠市经开区长淮卫镇卫东村,2
965,淮河社区新新尚层1栋,117.373077,32.933041,淮河社区新新尚层1栋,安徽省蚌埠市经开区淮河社区新新尚层1栋,2
966,淮河社区阿卡阳光苑6栋,117.483978,32.961529,淮河社区阿卡阳光苑6栋,安徽省蚌埠市经开区淮河社区阿卡阳光苑6栋,1
967,财富广场南区2栋,117.371449,32.932058,财富广场南区2栋,安徽省蚌埠市经开区胜利街道财富广场南区2栋,1
968,淮河社区新新尚层小区1栋,117.373077,32.933041,淮河社区新新尚层小区1栋,安徽省蚌埠市经开区淮河社区新新尚层小区1栋,1
969,淮河社区沁雅凯旋城19栋,117.360924,32.926102,淮河社区沁雅凯旋城19栋,安徽省蚌埠市经开区淮河社区沁雅凯旋城19栋,1
970,湖滨社区恒大御景湾2栋,117.398888,32.912521,湖滨社区恒大御景湾2栋,安徽省蚌埠市经开区湖滨社区恒大御景湾2栋,1
971,通城紫都10栋,117.394226,32.96909,通城紫都10栋,安徽省蚌埠市淮上区吴小街镇通城紫都10栋,1
972,外滩花园20栋,117.365273,32.967941,外滩花园20栋,安徽省蚌埠市淮上区小蚌埠镇外滩花园20栋,1
973,荷花园小区一期A5号楼,117.37923,32.97194,荷花园小区一期A5号楼,安徽省蚌埠市淮上区小蚌埠镇荷花园小区一期A5号楼,1
974,,117.299858,33.033421,淝南村,安徽省蚌埠市淮上区梅桥镇淝南村,1
975,上河时代北区,117.366173,32.969009,上河时代北区,安徽省蚌埠市淮上区淮滨街道上河时代北区,1
976,上河时代北区20栋,117.366173,32.969009,上河时代北区20栋,安徽省蚌埠市淮上区淮滨街道上河时代北区20栋,1
977,小蚌埠镇荷花园1期12栋,117.376045,32.970314,小蚌埠镇荷花园1期12栋,安徽省蚌埠市淮上区小蚌埠镇荷花园1期12栋,1
978,徐圩乡陆湖村,116.863113,33.085072,徐圩乡陆湖村,安徽省蚌埠市怀远县徐圩乡陆湖村,1
979,文锦路社区山水华庭小区32栋,117.336952,32.915791,文锦路社区山水华庭小区32栋,安徽省蚌埠市高新区文锦路社区山水华庭小区32栋,1
980,绿地世纪城社区西绿地津桥公馆,117.30442,32.908459,绿地世纪城社区西绿地津桥公馆,安徽省蚌埠市高新区绿地世纪城社区西绿地津桥公馆,1
981,科苑社区嘉和豪庭1栋,117.323677,32.908901,科苑社区嘉和豪庭1栋,安徽省蚌埠市高新区科苑社区嘉和豪庭1栋,1
982,中央美域A区,117.236572,31.86734,中央美域A区,安徽省合肥市蜀山区中央美域A区,1
983,中铁青秀城,117.245049,31.8717,中铁青秀城,安徽省合肥市蜀山区中铁青秀城,1
984,内森庄园,117.214027,31.815748,内森庄园,安徽省合肥市蜀山区内森庄园,1
985,和谐家园（长丰南路）,117.246239,31.81955,和谐家园（长丰南路）,安徽省合肥市蜀山区和谐家园（长丰南路）,1
986,天和园,117.21106,31.80793,天和园,安徽省合肥市蜀山区天和园,1
987,当代花园,117.2239,31.8298,当代花园,安徽省合肥市蜀山区当代花园,1
988,颐和阳光100小区,117.242233,31.857639,颐和阳光100小区,安徽省合肥市蜀山区颐和阳光100小区,1
989,颐园世家,117.220543,31.799419,颐园世家,安徽省合肥市蜀山区颐园世家,1
990,龙居山庄天龙居,117.241882,31.864996,龙居山庄天龙居,安徽省合肥市蜀山区龙居山庄天龙居,1
991,岳西新村B区,117.224106,31.85121,岳西新村B区,安徽省合肥市蜀山区岳西新村B区,1
992,通和易居北苑,117.24855,31.84676,通和易居北苑,安徽省合肥市蜀山区通和易居北苑,1
993,家家景园3期,117.229713,31.857969,家家景园3期,安徽省合肥市蜀山区家家景园3期,1
994,安徽电力公司黄山路生活区,117.26482,31.84187,安徽电力公司黄山路生活区,合肥市蜀山区三里庵街道黄山路270号,1
995,玉成明珠苑,117.191658,31.946278,玉成明珠苑,安徽省合肥市长丰县岗集镇玉成明珠苑,1
996,阿奎利亚城品,117.259727,31.95619,阿奎利亚城品,安徽省合肥市长丰县阿奎利亚城品,1
997,,117.259727,32.200161,顾圩村,安徽省合肥市长丰县下塘镇顾圩村,1
998,北城世纪城一期颐徽苑,117.244935,32.005156,北城世纪城一期颐徽苑,安徽省合肥市长丰县北城世纪城一期颐徽苑,1
999,北城明珠小区,117.260208,31.970671,北城明珠小区,安徽省合肥市长丰县北城明珠小区,1
1000,华邦万派城,117.164101,31.727461,华邦万派城,安徽省合肥市肥西县上派镇华邦万派城,1
1001,,117.195953,31.68487,韩圩村,安徽省合肥市肥西县上派镇韩圩村,1
1002,东冠繁华逸城,117.172684,31.78264,东冠繁华逸城,安徽省合肥市肥西县桃花镇东冠繁华逸城,1
1003,信地华地城,117.1651,31.78064,信地华地城,安徽省合肥市肥西县桃花镇信地华地城,1
1004,,116.786743,31.761841,墩塘村,安徽省合肥市肥西县铭传乡墩塘村,1
1005,,116.772598,31.672239,光明村,安徽省合肥市肥西县山南镇光明村,1
1006,名邦中央公馆,117.159912,31.705099,名邦中央公馆,安徽省合肥市肥西县上派镇名邦中央公馆,1
1007,,117.67775,32.139271,王城社区,安徽省合肥市肥东县八斗镇王城社区,1
1008,光大居委会光大新村,117.453407,31.89065,光大居委会光大新村,安徽省合肥市肥东县店埠镇光大居委会光大新村,1
1009,凯旋公馆,117.448624,31.889799,凯旋公馆,安徽省合肥市肥东县店埠镇凯旋公馆,1
1010,汇景新城,117.461853,31.88685,汇景新城,安徽省合肥市肥东县店埠镇和平社区汇景新城,1
1011,传桥组,117.487785,31.877279,传桥组,安徽省合肥市肥东县店埠镇定光社区传桥组,1
1012,新农村小区,117.487785,31.877279,新农村小区,安徽省合肥市肥东县店埠镇定光社区新农村小区,1
1013,新城家园,117.452271,31.86648,新城家园,安徽省合肥市肥东县店埠镇新城社区新城家园,1
1014,,117.469696,31.881382,镇南社区,安徽省合肥市肥东县店埠镇镇南社区,1
1015,育红小学宿舍楼,117.471291,31.884501,育红小学宿舍楼,安徽省合肥市肥东县店埠镇青春社区育红小学宿舍楼,1
1016,,117.507332,31.950085,民新村,安徽省合肥市肥东县牌坊回族满族乡民新村,1
1017,供销社宿舍,117.6334,31.93203,供销社宿舍,安徽省合肥市肥东县石塘镇供销社宿舍,1
1018,,117.6334,31.93203,新展社区,安徽省合肥市肥东县石塘镇新展社区,1
1019,,117.567917,31.899361,龙城社区,安徽省合肥市肥东县石塘镇龙城社区,1
1020,紫玉华府,117.420578,31.890209,紫玉华府,安徽省合肥市肥东县陈大郢社区紫玉华府,1
1021,,117.846298,32.047058,沙河村,安徽省合肥市肥东县马湖乡沙河村,1
1022,,117.844467,32.06942,马湖社区,安徽省合肥市肥东县马湖乡马湖社区,1
1023,星光嘉苑,117.466843,31.88942,星光嘉苑,安徽省合肥市肥东县店埠镇星光嘉苑,1
1024,双桥新村,117.50486,31.862881,双桥新村,安徽省合肥市肥东县店埠镇双桥新村,1
1025,,117.585152,31.87163,桑园村,安徽省合肥市肥东县店埠镇桑园村,1
1026,原卫生局宿舍康居苑小区,117.48558,31.877138,原卫生局宿舍康居苑小区,安徽省合肥市肥东县店埠镇沿河东路原卫生局宿舍康居苑小区,1
1027,,117.576347,31.95878,俞庙村,安徽省合肥市肥东县梁园镇俞庙村,1
1028,临泉花苑小区,117.304039,31.88673,临泉花苑小区,安徽省合肥市瑶海区临泉花苑小区,1
1029,元一名城,117.292686,31.890617,元一名城,安徽省合肥市瑶海区元一名城,1
1030,凤翔家园,117.321709,31.87384,凤翔家园,安徽省合肥市瑶海区凤翔家园,1
1031,华都城市花园,117.376839,31.86614,华都城市花园,安徽省合肥市瑶海区华都城市花园,1
1032,怡馨苑,117.30117,31.882,怡馨苑,安徽省合肥市瑶海区怡馨苑,1
1033,恒丰嘉园,117.324287,31.868891,恒丰嘉园,安徽省合肥市瑶海区恒丰嘉园,1
1034,恒大中央广场,117.298576,31.875879,恒大中央广场,安徽省合肥市瑶海区恒大中央广场,1
1035,斯瑞新景苑,117.367607,31.874729,斯瑞新景苑,安徽省合肥市瑶海区斯瑞新景苑,1
1036,新创益民家园,117.387802,31.86816,新创益民家园,安徽省合肥市瑶海区新创益民家园,1
1037,温莎国际广场,117.309425,31.874451,温莎国际广场,安徽省合肥市瑶海区温莎国际广场,1
1038,铜陵路工业锅炉厂宿舍,117.32357,31.869989,铜陵路工业锅炉厂宿舍,安徽省合肥市瑶海区铜陵路工业锅炉厂宿舍,1
1039,长江东路五里井17栋,117.328751,31.867077,长江东路五里井17栋,安徽省合肥市瑶海区长江东路五里井17栋,1
1040,芳邻家园,117.333656,31.873131,芳邻家园,安徽省合肥市瑶海区芳邻家园,1
1041,合浦新村（恢复楼）,117.354279,31.86565,合浦新村（恢复楼）,安徽省合肥市瑶海区大兴镇合浦新村（恢复楼）,1
1042,海洲景秀世家2期,117.36676,31.88011,海洲景秀世家2期,安徽省合肥市瑶海区海洲景秀世家2期,1
1043,马岗社区龙岗管委会宿舍楼,117.372261,31.864079,马岗社区龙岗管委会宿舍楼,安徽省合肥市瑶海区马岗社区龙岗管委会宿舍楼,1
1044,红星家园,117.308037,31.88308,红星家园,安徽省合肥市瑶海区红星家园,1
1045,合郢花园,117.373077,31.90399,合郢花园,安徽省合肥市新站区合郢花园,1
1046,园上园公寓楼,117.358513,31.887011,园上园公寓楼,安徽省合肥市新站区园上园公寓楼,1
1047,家天下3期,117.324829,31.893736,家天下3期,安徽省合肥市新站区家天下3期,1
1048,新海尚宸家园,117.342247,31.898899,新海尚宸家园,安徽省合肥市新站区新海尚宸家园,1
1049,昊天园小区,117.423203,31.933254,昊天园小区,安徽省合肥市新站区昊天园小区,1
1050,京商商贸城,117.343521,31.928022,京商商贸城,安徽省合肥市新站区京商商贸城,1
1051,张洼新村,117.319672,31.905239,张洼新村,安徽省合肥市新站区张洼新村,1
1052,金辉悦府小区,117.324478,31.91856,金辉悦府小区,安徽省合肥市新站区金辉悦府小区,1
1053,瑶海佳苑（兴华苑三期）,117.322212,31.9044,瑶海佳苑（兴华苑三期）,安徽省合肥市新站区瑶海佳苑（兴华苑三期）,1
1054,城市之光C区,117.87793,31.61656,城市之光C区,安徽省合肥市巢湖市凤凰山街道城市之光C区,1
1055,武山居委会,117.612274,31.420982,武山居委会,安徽省合肥市巢湖市槐林镇武山居委会,1
1056,古城新村,117.25576,31.875839,古城新村,安徽省合肥市庐阳区古城新村,1
1057,探矿厂宿舍,117.286018,31.905523,探矿厂宿舍,安徽省合肥市庐阳区探矿厂宿舍,1
1058,杏林花园南区,117.2873,31.89435,杏林花园南区,安徽省合肥市庐阳区杏林花园南区,1
1059,柏景湾青云轩,117.271576,31.877001,柏景湾青云轩,安徽省合肥市庐阳区柏景湾青云轩,1
1060,海亮红玺台小区,117.266151,31.89242,海亮红玺台小区,安徽省合肥市庐阳区海亮红玺台小区,1
1061,海棠别院,117.268982,31.893364,海棠别院,安徽省合肥市庐阳区海棠别院,1
1062,四泉花园南区,117.253517,31.885321,四泉花园南区,安徽省合肥市庐阳区四泉花园南区,1
1063,土产日杂公司宿舍,117.258232,31.898203,土产日杂公司宿舍,安徽省合肥市庐阳区土产日杂公司宿舍,1
1064,公园西村,117.293198,31.86784,公园西村,安徽省合肥市庐阳区公园西村,1
1065,宝利丰广场,117.286774,31.83544,宝利丰广场,安徽省合肥市包河区宝利丰广场,1
1066,曙宏南苑,117.275787,31.82452,曙宏南苑,安徽省合肥市包河区曙宏南苑,1
1067,滨湖明珠西区,117.28219,31.73312,滨湖明珠西区,安徽省合肥市包河区滨湖明珠西区,1
1068,琼林苑小区,117.289932,31.748102,琼林苑小区,安徽省合肥市包河区琼林苑小区,1
1069,豪门金地小区,117.280571,31.706409,豪门金地小区,安徽省合肥市包河区豪门金地小区,1
1070,金湾嘉园,117.306091,31.85006,金湾嘉园,安徽省合肥市包河区金湾嘉园,1
1071,兴丰苑小区,117.293159,31.850479,兴丰苑小区,安徽省合肥市包河区兴丰苑小区,1
1072,岭湖墅,117.149162,31.823151,岭湖墅,安徽省合肥市高新区岭湖墅,1
1073,,117.333885,31.269855,冶父山社区,安徽省合肥市庐江县冶父山镇冶父山社区,1
1074,,117.29203,31.476749,施丰村,安徽省合肥市庐江县同大镇施丰村,1
1075,翠绿园,117.294563,31.257862,翠绿园,安徽省合肥市庐江县庐城镇翠绿园,1
1076,,117.185913,31.189911,城池村,安徽省合肥市庐江县柯坦镇城池村,1
1077,,117.432388,31.06563,新中村,安徽省合肥市庐江县矾山镇新中村,1
1078,,117.237877,31.06312,吉桥村,安徽省合肥市庐江县罗河镇吉桥村,1
1079,,117.392632,30.982321,鲍店村,安徽省合肥市庐江县罗河镇鲍店村,1
1080,,117.169968,31.376863,铺岗村,安徽省合肥市庐江县金牛镇铺岗村,1
1081,,117.326378,31.066971,八里村,安徽省合肥市庐江县泥河镇八里村,1
1082,,118.131409,30.955759,九榔村,安徽省铜陵市义安区钟鸣镇九榔村,1
1083,天山社区,117.87431,30.95614,天山社区,安徽省铜陵市铜官区天山社区,1
1084,,117.790466,30.919291,机厂新村,安徽省铜陵市铜官区机厂新村,1
1085,,117.855957,30.947758,土桥街道,安徽省铜陵市无为市牛埠镇土桥街道,1
1086,,117.270523,30.851721,庆华村,安徽省铜陵市枞阳县会宫镇庆华村,3
1087,,117.309029,30.82242,拔茅村,安徽省铜陵市枞阳县会宫镇拔茅村,1
1088,,117.317131,30.74229,郭桥村,安徽省铜陵市枞阳县枞阳镇郭桥村,1
1089,,117.522308,30.892969,左山村,安徽省铜陵市枞阳县横埠镇左山村,1
1090,建材大市场,117.506073,30.89901,建材大市场,安徽省铜陵市枞阳县横埠镇建材大市场,1
1091,,117.439705,30.855785,方正村,安徽省铜陵市枞阳县横埠镇方正村,1
1092,,117.489449,30.86125,龙山村,安徽省铜陵市枞阳县横埠镇龙山村,1
1093,,117.252731,30.908291,向阳村,安徽省铜陵市枞阳县浮山镇向阳村,1
1094,,117.279861,30.90988,浮山村,安徽省铜陵市枞阳县浮山镇浮山村,1
1095,,117.332108,30.971189,龙井村,安徽省铜陵市枞阳县白柳镇龙井村,1
1096,,117.396469,30.72201,藕山村,安徽省铜陵市枞阳县藕山镇藕山村,1
1097,,117.219467,30.6576,新丰村,安徽省铜陵市枞阳县铁铜乡新丰村,2
1098,,117.157532,30.789579,先锋村,安徽省铜陵市枞阳县雨坛镇先锋村,1
1099,,117.484306,30.946951,将军村,安徽省铜陵市枞阳县钱铺镇将军村,3
1100,三义镇义兴街,116.475677,33.099979,三义镇义兴街,安徽省亳州市蒙城县三义镇义兴街,1
1101,双桥村褚尹庄,116.616692,33.07975,双桥村褚尹庄,安徽省亳州市蒙城县乐土镇双桥村褚尹庄,1
1102,乐土镇柳林街,116.65197,33.107079,乐土镇柳林街,安徽省亳州市蒙城县乐土镇柳林街,1
1103,金天地商业街,116.556511,33.256069,金天地商业街,安徽省亳州市蒙城县城关街道金天地商业街,1
1104,玖隆国际C区,116.56064,33.24014,玖隆国际C区,安徽省亳州市蒙城县庄周街道玖隆国际C区,1
1105,赵集村东孙庄,116.785172,33.401711,赵集村东孙庄,安徽省亳州市蒙城县许疃镇赵集村东孙庄,1
1106,闫集村后钱庄,116.663277,33.375092,闫集村后钱庄,安徽省亳州市蒙城县许疃镇闫集村后钱庄,1
1107,桂堰小区,116.594292,33.242199,桂堰小区,安徽省亳州市蒙城县庄周街道桂堰小区,1
1108,北环中路,116.217339,33.516613,北环中路,安徽省亳州市涡阳县城关镇街道北环中路,1
1109,医苑新村,116.206589,33.490322,医苑新村,安徽省亳州市涡阳县城关镇街道医苑新村,1
1110,付庄行政村付庄,116.40625,33.655571,付庄行政村付庄,安徽省亳州市涡阳县新兴镇付庄行政村付庄,1
1111,左楼付庄,116.224136,33.702351,左楼付庄,安徽省亳州市涡阳县新兴镇左楼付庄,1
1112,桂语城栖,116.190903,33.47234,桂语城栖,安徽省亳州市涡阳县星园街道桂语城栖,1
1113,孙小桥行政村李楼,116.127838,33.499802,孙小桥行政村李楼,安徽省亳州市涡阳县花沟镇孙小桥行政村李楼,1
1114,李庄行政村李庄,116.356941,33.66341,李庄行政村李庄,安徽省亳州市涡阳县马店集镇李庄行政村李庄,1
1115,紫光大道与育英路交口向南,116.20342,33.49568,紫光大道与育英路交口向南,安徽省亳州市涡阳县城关街道紫光大道与育英路交口向南,2
1116,乐行家园,116.214256,33.506474,乐行家园,安徽省亳州市涡阳县城关镇乐行家园,1
1117,付庄行政村,116.224136,33.702351,付庄行政村,安徽省亳州市涡阳县新兴镇付庄行政村,1
1118,孙小桥行政村,116.127838,33.499802,孙小桥行政村,安徽省亳州市涡阳县花沟镇孙小桥行政村,1
1119,,116.238281,33.67923,左楼村,安徽省亳州市涡阳县新兴镇左楼村,1
1120,幸福港湾,116.186211,33.494694,幸福港湾,安徽省亳州市涡阳县新汽车站对面路北小区幸福港湾,1
1121,巨人印象小区,116.199715,33.489044,巨人印象小区,安徽省亳州市涡阳县城关街道巨人印象小区,5
1122,,116.233788,33.595928,大围子自然村,安徽省亳州市涡阳县新兴镇左楼行政村大围子自然村,1
1123,,116.098152,33.493679,狄马村,安徽省亳州市涡阳县花沟镇狄马村,1
1124,巨人印象小区,116.196632,33.489349,巨人印象小区,安徽省亳州市涡阳县巨人印象小区,3
1125,城关镇五一路,116.207062,33.141781,城关镇五一路,安徽省亳州市利辛县城关镇五一路,1
1126,文物所家属院,116.199089,33.144428,文物所家属院,安徽省亳州市利辛县城关镇文物所家属院,1
1127,老供销社家属院,116.201637,33.139309,老供销社家属院,安徽省亳州市利辛县城关镇港口新村老供销社家属院,1
1128,顺河村姚庄,116.138687,33.132359,顺河村姚庄,安徽省亳州市利辛县城关镇顺河村姚庄,1
1129,黄桥社区,116.200844,33.149441,黄桥社区,安徽省亳州市利辛县城关镇黄桥社区,1
1130,张大庄村张大庄,116.32135,33.25433,张大庄村张大庄,安徽省亳州市利辛县潘楼镇张大庄村张大庄,1
1131,刘沈村刘寨,116.097771,33.138821,刘沈村刘寨,安徽省亳州市利辛县王市镇刘沈村刘寨,1
1132,纪王场乡纪竹园庄,116.130531,33.341599,纪王场乡纪竹园庄,安徽省亳州市利辛县纪王场乡纪竹园庄,1
1133,李圩村腰西庄,116.238037,32.95631,李圩村腰西庄,安徽省亳州市利辛县胡集镇李圩村腰西庄,1
1134,张集村东刘,116.123047,33.202,张集村东刘,安徽省亳州市利辛县西潘楼镇张集村东刘,1
1135,阚疃镇人民南路,116.207329,33.13203,阚疃镇人民南路,安徽省亳州市利辛县阚疃镇人民南路,1
1136,金龙国际新城,116.212128,33.163021,金龙国际新城,安徽省亳州市利辛县城关镇金龙国际新城,1
1137,中央名城小区,116.199089,33.144428,中央名城小区,安徽省亳州市利辛县城关镇中央名城小区,1
1138,复兴社区利东东区,116.206863,33.122826,复兴社区利东东区,安徽省亳州市利辛县城关镇复兴社区利东东区,2
1139,春店社区胜利村,116.232552,33.158878,春店社区胜利村,安徽省亳州市利辛县城关镇春店社区胜利村,1
1140,英伦华帝小区,116.191643,33.145378,英伦华帝小区,安徽省亳州市利辛县城关镇前进路英伦华帝小区,2
1141,老二中对面黄寨社区,116.143272,33.140629,老二中对面黄寨社区,安徽省亳州市利辛县老二中对面黄寨社区,1
1142,,116.140732,33.197868,东潘楼村,安徽省亳州市利辛县西潘楼镇东潘楼村,1
1143,,116.212502,33.176289,闫郢村董老寨,安徽省亳州市利辛县城关镇闫郢村董老寨,1
1144,,116.214333,32.988941,程刘村张庄,安徽省亳州市利辛县胡集镇程刘村张庄,1
1145,建投世纪城,115.761673,33.80518,建投世纪城,安徽省亳州市高新区建投世纪城,1
1146,翡翠庄园,115.767487,33.81929,翡翠庄园,安徽省亳州市高新区翡翠庄园,1
1147,豪泽丽景小区,115.771439,33.82769,豪泽丽景小区,安徽省亳州市高新区豪泽丽景小区,1
1148,亿丰御景小区,115.786133,33.838718,亿丰御景小区,安徽省亳州市谯城区亿丰御景小区,1
1149,赵老家,115.627296,33.78054,赵老家,安徽省亳州市谯城区十八里镇候桥村赵老家,1
1150,御花园小区,115.76889,33.857979,御花园小区,安徽省亳州市谯城区御花园小区,1
1151,白依路包园新村,115.789352,33.869049,白依路包园新村,安徽省亳州市谯城区薛阁办事处白依路包园新村,1
1152,曹寺行政村东张庄,115.995644,33.95237,曹寺行政村东张庄,安徽省亳州市谯城区颜集镇曹寺行政村东张庄,1
1153,程屯村,115.767792,33.930531,程屯村,安徽省亳州市谯城区华佗镇程屯村,1
1154,小王庄,115.721512,33.94286,小王庄,安徽省亳州市谯城区华佗镇程屯村小王庄,1
1155,上善名郡上园,115.759293,33.867359,上善名郡上园,安徽省亳州市谯城区薛阁街道上善名郡上园,1
1156,,119.012642,32.679459,天长街道,安徽省滁州市天长市天长街道,2
1157,,118.775574,32.666061,汊涧镇,安徽省滁州市天长市汊涧镇,1
1158,,118.004349,32.990391,古沛镇,安徽省滁州市明光市古沛镇,1
1159,泰鑫现代城东区,118.317131,32.29985,泰鑫现代城东区,安徽省滁州市琅琊区清流街道泰鑫现代城东区,1
1160,,117.219681,32.68367,官塘镇,安徽省滁州市凤阳县官塘镇,5
1161,惠南小区,108.627968,34.055893,惠南小区,陕西省西安市鄠邑区余下街道惠南小区,1
1162,曲抱村,108.570961,34.095181,曲抱村,陕西省西安市鄠邑区玉蝉街办曲抱村,1
1163,,112.32663,32.50853,上港乡,河南省南阳市新野县上港乡,1
1164,,112.520416,32.490021,前高庙乡,河南省南阳市新野县前高庙乡,1
1165,,112.311623,32.407841,新甸铺镇,河南省南阳市新野县新甸铺镇,2
1166,,112.550858,32.593578,施庵镇,河南省南阳市新野县施庵镇,1
1167,,112.380997,32.521332,汉华街道,河南省南阳市新野县汉华街道,1
1168,,112.30912,32.61541,王集镇,河南省南阳市新野县王集镇,1
1169,,113.501892,32.422379,吴城镇,河南省南阳市桐柏县吴城镇,3
1170,,113.411949,32.37009,城关镇,河南省南阳市桐柏县城关镇,1
1171,,113.403191,32.369801,城郊乡,河南省南阳市桐柏县城郊乡,5
1172,,113.694603,32.534649,毛集镇,河南省南阳市桐柏县毛集镇,4
1173,,113.298264,32.416489,淮源镇,河南省南阳市桐柏县淮源镇,1
1174,,111.47244,33.3056,城关镇,河南省南阳市西峡县城关镇,1
1175,,112.620659,32.690353,官庄镇,河南省南阳市官庄工区官庄镇,1
1176,赤虎办事处,112.599098,32.685188,赤虎办事处,河南省南阳市官庄工区赤虎办事处,2
1177,,112.610512,32.681019,赤虎街道,河南省南阳市官庄工区赤虎街道,2
1178,,113.01078,33.460369,拐河镇,河南省南阳市方城县拐河镇,1
1179,,112.911751,33.253101,清河乡,河南省南阳市方城县清河乡,1
1180,,113.167603,33.321709,独树镇,河南省南阳市方城县独树镇,1
1181,白河街道办,112.590851,32.975471,白河街道办,河南省南阳市示范区白河街道办,1
1182,七一街道办,112.515739,32.97913,七一街道办,河南省南阳市卧龙区七一街道办,1
1183,,112.515739,32.97913,七一街道,河南省南阳市卧龙区七一街道,1
1184,,112.551109,33.02961,七里园乡,河南省南阳市卧龙区七里园乡,1
1185,卧龙岗街道办,112.512032,32.978149,卧龙岗街道办,河南省南阳市卧龙区卧龙岗街道办,1
1186,,112.524033,32.991821,梅溪街道,河南省南阳市卧龙区梅溪街道,3
1187,梅溪街道办,112.525543,32.994068,梅溪街道办,河南省南阳市卧龙区梅溪街道办,1
1188,,112.498726,32.983124,武侯街道,河南省南阳市卧龙区武侯街道,1
1189,,112.599747,33.116718,蒲山镇,河南省南阳市卧龙区蒲山镇,2
1190,,112.448708,32.83622,陆营镇,河南省南阳市卧龙区陆营镇,1
1191,,112.51812,33.017509,光武街道,河南省南阳市卧龙区光武街道,1
1192,,112.449333,32.769939,英庄镇,河南省南阳市卧龙区英庄镇,1
1193,,112.563271,33.029228,两相路,河南省南阳市高新区两相路,1
1194,,112.563271,33.029228,北京路,河南省南阳市高新区北京路,2
1195,,112.579201,32.941204,中关村,河南省南阳市高新区中关村,1
1196,,111.939552,33.037842,灌涨镇,河南省南阳市内乡县灌涨镇,2
1197,,112.157661,32.732101,张楼乡,河南省南阳市邓州市张楼乡,1
1198,,111.958282,32.741219,文渠镇,河南省南阳市邓州市文渠镇,2
1199,,112.220329,32.75618,白牛镇,河南省南阳市邓州市白牛镇,1
1200,,112.095131,32.599739,龙堰乡,河南省南阳市邓州市龙堰乡,1
1201,,112.647682,33.395489,太山庙乡,河南省南阳市南召县太山庙乡,2
1202,,112.633018,33.253738,皇路店镇,河南省南阳市南召县皇路店镇,1
1203,,112.757309,32.562462,上屯镇,河南省南阳市唐河县上屯镇,2
1204,,112.820312,32.676891,北京大道,河南省南阳市唐河县北京大道,1
1205,,112.919258,32.773479,源潭镇,河南省南阳市唐河县源潭镇,1
1206,,112.743729,32.488529,黑龙镇,河南省南阳市唐河县黑龙镇,2
1207,,112.651192,32.429451,龙潭镇,河南省南阳市唐河县龙潭镇,5
1208,,112.544342,32.416061,苍台镇,河南省南阳市唐河县苍台镇,1
1209,,113.1436,32.795879,少拜寺乡,河南省南阳市唐河县少拜寺乡,1
1210,,112.725471,32.79929,桐寨铺镇,河南省南阳市唐河县桐寨铺镇,1
1211,,112.95607,32.511761,马振抚镇,河南省南阳市唐河县马振抚镇,1
1212,,112.969902,32.687988,古城乡,河南省南阳市唐河县古城乡,1
1213,,111.024986,33.243679,荆紫关镇,河南省南阳市淅川县荆紫关镇,1
1214,,111.793518,32.696369,九重镇,河南省南阳市淅川县九重镇,1
1215,,112.945183,32.869797,太和镇,河南省南阳市社旗县太和镇,2
1216,,113.149384,32.863869,朱集镇,河南省南阳市社旗县朱集镇,4
1217,,112.88726,32.854061,李店镇,河南省南阳市社旗县李店镇,2
1218,,113.126518,33.045341,下洼镇,河南省南阳市社旗县下洼镇,1
1219,,112.21862,32.94101,侯集镇,河南省南阳市镇平县侯集镇,3
1220,,112.335297,32.95462,彭营乡,河南省南阳市镇平县彭营乡,1
1221,,112.084152,32.947021,贾宋镇,河南省南阳市镇平县贾宋镇,1
1222,,112.257172,32.890282,郭庄乡,河南省南阳市镇平县郭庄乡,2
1223,,112.084068,33.157131,高丘镇,河南省南阳市镇平县高丘镇,2
1224,,112.263992,33.033482,雪枫街道,河南省南阳市镇平县雪枫街道,1
1225,,112.23774,33.036617,北关村,河南省南阳市镇平县北关村,1
1226,雪枫办,112.254791,33.035809,雪枫办,河南省南阳市镇平县雪枫办,1
1227,,112.541702,32.994469,新华街道,河南省南阳市宛城区新华街道,1
1228,,112.538422,33.013279,汉冶路,河南省南阳市宛城区汉冶路,1
1229,,112.539017,32.856758,黄台岗镇,河南省南阳市宛城区黄台岗镇,3
1230,汉冶办事处,112.51812,33.017509,汉冶办事处,河南省南阳市宛城区汉冶办事处,3
1231,,112.522346,32.752731,瓦店镇,河南省南阳市宛城区瓦店镇,1
1232,,112.689125,32.93325,茶庵乡,河南省南阳市宛城区茶庵乡,1
1233,,112.650459,33.078609,新店乡,河南省南阳市城乡一体化示范区新店乡,1
1234,,112.694908,34.082569,北周庄村,河南省平顶山市汝州市寄料镇北周庄村,1
1235,,112.912209,33.739281,老城大街,河南省平顶山市鲁山县老城大街,1
1236,直管4号院,112.392448,33.749191,直管4号院,河南省平顶山市鲁山县尧山镇直管4号院,1
1237,人民路中段172号院,112.904381,33.739063,人民路中段172号院,河南省平顶山市鲁山县鲁阳街道人民路中段172号院,1
1238,优越路佳田B座,113.309692,33.736568,优越路佳田B座,河南省平顶山市卫东区优越路佳田B座,1
1239,园丁路食品公司家属院,113.303131,33.723118,园丁路食品公司家属院,河南省平顶山市卫东区优越路街道园丁路食品公司家属院,1
1240,建设路街道佳田B楼,113.309692,33.736568,建设路街道佳田B楼,河南省平顶山市卫东区建设路街道佳田B楼,3
1241,广厦综合楼,113.314301,33.742599,广厦综合楼,河南省平顶山市卫东区优越路街道广厦综合楼,1
1242,光明路街道王庄村,113.292953,33.738972,光明路街道王庄村,河南省平顶山市新华区光明路街道王庄村,1
1243,嘉怡居,113.283699,33.737728,嘉怡居,河南省平顶山市新华区曙光街街道嘉怡居,1
1244,新华区政府家属院,113.281799,33.73885,新华区政府家属院,河南省平顶山市新华区曙光街街道新华区政府家属院,1
1245,阳光花苑小区,113.285278,33.74498,阳光花苑小区,河南省平顶山市新华区曙光街街道阳光花苑小区,2
1246,乐福小区,113.297211,33.75629,乐福小区,河南省平顶山市新华区矿工路街道乐福小区,1
1247,平安家园,113.301437,33.753227,平安家园,河南省平顶山市新华区矿工路街道平安家园,2
1248,西市场优胜花园,113.275833,33.757206,西市场优胜花园,河南省平顶山市新华区西市场优胜花园,2
1249,三环佳苑,113.279663,33.75391,三环佳苑,河南省平顶山市新华区西市场街道三七街三环佳苑,1
1250,五星小区,113.283363,33.75581,五星小区,河南省平顶山市新华区西市场街道五星小区,1
1251,优胜街四矿小区,113.27565,33.756329,优胜街四矿小区,河南省平顶山市新华区西市场街道优胜街四矿小区,1
1252,自然城小区,113.273193,33.757931,自然城小区,河南省平顶山市新华区西市场街道自然城小区,1
1253,南团小区,113.284752,33.752232,南团小区,河南省平顶山市新华区西市场街道三七街南团小区,1
1254,百合金山1号楼,113.27538,33.75779,百合金山1号楼,河南省平顶山市新华区西市场街道百合金山1号楼,1
1255,自然天城1号楼,113.273193,33.757931,自然天城1号楼,河南省平顶山市新华区西市场街道自然天城1号楼,1
1256,怡购城,113.281105,33.741173,怡购城,河南省平顶山市新华区西高皇街道怡购城,1
1257,西花园小区,113.234474,33.788914,西花园小区,河南省平顶山市新华区新新街街道西花园小区,1
1258,四矿矿后平房,113.273277,33.779629,四矿矿后平房,河南省平顶山市新华区西市场街道四矿矿后平房,2
1259,春华国际,113.258881,33.74382,春华国际,河南省平顶山市新华区西高皇街道春华国际,1
1260,常绿大阅城,113.182716,33.777222,常绿大阅城,河南省平顶山市新城区湖滨路街道常绿大阅城,1
1261,湖光花园凤舞园,113.183617,33.768021,湖光花园凤舞园,河南省平顶山市新城区湖滨路街道湖光花园凤舞园,1
1262,湖滨路街道西太平,113.176773,33.768101,湖滨路街道西太平,河南省平顶山市新城区湖滨路街道西太平,1
1263,,113.509972,33.529148,辛楼村,河南省平顶山市叶县仙台镇辛楼村,1
1264,,113.377533,33.59169,小河赵村,河南省平顶山市叶县马庄回族乡小河赵村,1
1265,,113.159088,33.91729,石桥镇,河南省平顶山市宝丰县石桥镇,1
1266,,113.145081,33.873989,孙庄村,河南省平顶山市宝丰县周庄镇孙庄村,1
1267,,114.176735,35.892529,红旗街道,河南省鹤壁市山城区红旗街道,1
1268,,113.993362,35.4184,唐庄镇,河南省新乡市卫辉市唐庄镇,3
1269,,114.086578,35.398949,城郊乡,河南省新乡市卫辉市城郊乡,1
1270,,113.796181,35.197769,新乡经济开发区闫庄村,河南省新乡市新乡县新乡经济开发区闫庄村,2
1271,,113.887459,35.169258,东荆楼村,河南省新乡市新乡县朗公庙镇东荆楼村,1
1272,,113.881012,35.209961,张湾村,河南省新乡市新乡县朗公庙镇张湾村,1
1273,,113.899239,35.224266,青龙路东段,河南省新乡市新乡县青龙路东段,1
1274,,113.745033,35.67054,南村镇,河南省新乡市辉县市南村镇,1
1275,,113.739967,35.432079,北云门镇,河南省新乡市辉县市北云门镇,1
1276,,113.739594,35.674561,尚庄村,河南省新乡市辉县市南村镇尚庄村,1
1277,,113.824387,35.454166,滨河湾小区,河南省新乡市辉县市城关镇滨河湾小区,3
1278,世纪清华小区,113.791527,35.451698,世纪清华小区,河南省新乡市辉县市世纪清华小区,1
1279,,114.097298,35.225861,榆林乡王村,河南省新乡市延津县榆林乡王村,4
1280,,114.868698,35.33075,佘西村,河南省新乡市长垣市佘家镇佘西村,1
1281,,114.66156,35.145748,南蒲街道办事处,河南省新乡市长垣市南蒲街道办事处,1
1282,,114.764381,35.241459,小吕村,河南省新乡市长垣市满村镇小吕村,1
1283,,114.731216,35.255959,满村镇,河南省新乡市长垣市满村镇,1
1284,,114.655548,35.190006,宏力学校家属院,河南省新乡市长垣市宏力学校家属院,1
1285,,114.673279,35.169529,南蒲街道,河南省新乡市长垣市樊屯村南蒲街道,1
1286,富春园小区A区,113.8954,35.2771,富春园小区A区,河南省新乡市红旗区振中街250号富春园小区A区,1
1287,,113.929047,35.275532,洪门镇,河南省新乡市红旗区洪门镇,1
1288,,114.425629,35.033558,城关镇,河南省新乡市封丘县城关镇,1
1289,铁西办,113.835442,35.312073,铁西办,河南省新乡市卫滨区铁西办,1
1290,隆胜华庭小区,113.871117,35.266781,隆胜华庭小区,河南省新乡市卫滨区胜利路隆胜华庭小区,1
1291,海棠苑小区,113.536636,34.879532,海棠苑小区,河南省郑州市惠济区古荥镇海棠苑小区,1
1292,天伦庄园,113.61821,34.86412,天伦庄园,河南省郑州市惠济区新城街道天伦庄园,1
1293,中原桂冠,113.672981,34.859711,中原桂冠,河南省郑州市惠济区英才街中原桂冠,4
1294,大王庄,113.714645,34.685978,大王庄,河南省郑州市管城区十八里河街道大王庄,1
1295,瑞锦小区,113.793167,34.713421,瑞锦小区,河南省郑州市管城区经开十四大街瑞锦小区,1
1296,美景天城,113.717819,34.727402,美景天城,河南省郑州市管城区美景天城,1
1297,正商蓝钻小区,113.708221,34.717499,正商蓝钻小区,河南省郑州市管城区航海东路正商蓝钻小区,1
1298,陇海东路297号院,113.68415,34.73915,陇海东路297号院,河南省郑州市管城区陇海东路297号院,1
1299,紫荆尚都,113.682716,34.735531,紫荆尚都,河南省郑州市管城区陇海办事处紫荆山路紫荆尚都,1
1300,正商新蓝钻小区,113.698921,34.718811,正商新蓝钻小区,河南省郑州市管城区城东路办事处正商新蓝钻小区,1
1301,紫南花园,113.692787,34.705643,紫南花园,河南省郑州市管城区紫晨路紫南花园,1
1302,巴黎印象小区,113.963547,34.719681,巴黎印象小区,河南省郑州市中牟县广惠街办事处巴黎印象小区,2
1303,恒大绿洲,113.762932,34.71384,恒大绿洲,河南省郑州市经开区明湖办事处恒大绿洲,1
1304,,113.526558,34.594021,白寨镇,河南省郑州市新密市白寨镇,1
1305,沙固新村,113.258034,34.81657,沙固新村,河南省郑州市上街区沙固新村,1
1306,国棉三厂,113.616562,34.755947,国棉三厂,河南省郑州市中原区国棉三厂,1
1307,学府一号,113.62207,34.738483,学府一号,河南省郑州市中原区工人路学府一号,1
1308,林山寨40号院,113.621529,34.74617,林山寨40号院,河南省郑州市中原区林山寨40号院,1
1309,湖光苑小区,113.582718,34.750332,湖光苑小区,河南省郑州市中原区中原西路湖光苑小区,1
1310,九龙国际,113.609032,34.776031,九龙国际,河南省郑州市中原区冉屯路九龙国际,2
1311,万福花园,113.611549,34.72419,万福花园,河南省郑州市中原区桐柏南路万福花园,1
1312,万福花园,113.611549,34.72419,万福花园,河南省郑州市中原区桐柏路万福花园,1
1313,国棉四厂家属院,113.621452,34.75771,国棉四厂家属院,河南省郑州市中原区棉纺路办事处国棉四厂家属院,2
1314,帝湖花园,113.618767,34.713982,帝湖花园,河南省郑州市中原区航海西路办事处帝湖花园,1
1315,嵩阳商场中街,113.052948,34.456268,嵩阳商场中街,河南省郑州市登封市嵩阳办嵩阳商场中街,1
1316,,113.261948,34.43045,大冶镇,河南省郑州市登封市大冶镇,1
1317,睿智花园,113.557213,34.79565,睿智花园,河南省郑州市高新区梧桐街睿智花园,1
1318,冉庄锦程花园1号院,113.887161,34.708221,冉庄锦程花园1号院,河南省郑州市郑东新区冉庄锦程花园1号院,1
1319,卢浮公馆,113.767509,34.738926,卢浮公馆,河南省郑州市郑东新区卢浮公馆,1
1320,浅水湾小区,113.744118,34.783012,浅水湾小区,河南省郑州市郑东新区顺驰第一大街浅水湾小区,2
1321,海马公园,113.770447,34.748074,海马公园,河南省郑州市郑东新区海马公园,1
1322,中兴路锦汇苑,113.772774,34.787319,中兴路锦汇苑,河南省郑州市郑东新区祭城路街道办事处中兴路锦汇苑,1
1323,,113.803177,34.806339,姚桥乡,河南省郑州市郑东新区姚桥乡,1
1324,卢浮宫馆,113.767288,34.738258,卢浮宫馆,河南省郑州市郑东新区卢浮宫馆,1
1325,绿地老街,113.899879,34.780499,绿地老街,河南省郑州市郑东新区绿地老街,5
1326,前牛岗小区,113.799301,34.814629,前牛岗小区,河南省郑州市郑东新区龙子湖办事处前牛岗小区,1
1327,烟草局家属院,112.992462,34.748428,烟草局家属院,河南省郑州市巩义市园丁街烟草局家属院,2
1328,峪秀花园,113.101402,34.711182,峪秀花园,河南省郑州市巩义市大峪沟镇峪秀花园,1
1329,,113.030151,34.625549,夹津口镇,河南省郑州市巩义市夹津口镇,2
1330,建设新村,112.989288,34.742146,建设新村,河南省郑州市巩义市建设路建设新村,1
1331,,112.962532,34.644001,西村镇,河南省郑州市巩义市西村镇,2
1332,兴华南街46号院,113.632208,34.72723,兴华南街46号院,河南省郑州市二七区兴华南街46号院,1
1333,升龙国际小区,113.648804,34.725815,升龙国际小区,河南省郑州市二七区升龙国际小区,1
1334,永安街35号院,113.65466,34.73366,永安街35号院,河南省郑州市二七区永安街35号院,2
1335,铁道家园社区,113.65844,34.729038,铁道家园社区,河南省郑州市二七区福华街办事处铁道家园社区,1
1336,长江一号小区,113.66169,34.706768,长江一号小区,河南省郑州市二七区长江一号小区,2
1337,联合雅园,113.638329,34.711384,联合雅园,河南省郑州市二七区人和路办事处联合雅园,1
1338,京广南路68号院,113.65594,34.70762,京广南路68号院,河南省郑州市二七区京广南路68号院,1
1339,郑飞小区,113.637711,34.702728,郑飞小区,河南省郑州市二七区人和路办事处郑飞小区,1
1340,亚星城市山水,113.629723,34.708813,亚星城市山水,河南省郑州市二七区长江中路亚星城市山水,1
1341,财富星苑,113.65036,34.73188,财富星苑,河南省郑州市二七区保全街财富星苑,1
1342,铁路北福华街小区,113.662888,34.733002,铁路北福华街小区,河南省郑州市二七区福华街办事处北铁路北福华街小区,1
1343,亚星望江居,113.623718,34.700691,亚星望江居,河南省郑州市二七区郑密路亚星望江居,1
1344,铁路北福华街小区,113.646294,34.733109,铁路北福华街小区,河南省郑州市二七区铁路北福华街小区,1
1345,长江路1号,113.657738,34.710361,长江路1号,河南省郑州市二七区长江路1号,1
1346,,113.898483,34.773846,张庄办事处,河南省郑州市航空港区张庄办事处,1
1347,,113.365578,34.786961,城关乡,河南省郑州市荥阳市城关乡,1
1348,锦绣佳园,113.41729,34.781399,锦绣佳园,河南省郑州市荥阳市京城街道锦绣佳园,1
1349,清华大溪地,113.445847,34.750912,清华大溪地,河南省郑州市荥阳市豫龙镇清华大溪地,1
1350,锦绣家园,113.41729,34.781399,锦绣家园,河南省郑州市荥阳市京城街道三公路锦绣家园,1
1351,开祥御龙城,113.640488,34.79982,开祥御龙城,河南省郑州市金水区东风路办事处开祥御龙城,1
1352,金成时代小区,113.707741,34.776138,金成时代小区,河南省郑州市金水区丰产路金成时代小区,1
1353,中方园小区,113.65049,34.813,中方园小区,河南省郑州市金水区丰庆路中方园小区,1
1354,健康路176号院,113.66379,34.773586,健康路176号院,河南省郑州市金水区健康路176号院,2
1355,花园新村,113.684181,34.80117,花园新村,河南省郑州市金水区北林路办事处花园新村,1
1356,纬五路10号院,113.68966,34.77195,纬五路10号院,河南省郑州市金水区纬五路10号院,1
1357,东岸尚景,113.663651,34.827801,东岸尚景,河南省郑州市金水区三全路东岸尚景,7
1358,普罗旺世,113.635437,34.822147,普罗旺世,河南省郑州市金水区丰庆路普罗旺世,1
1359,大桥局一公司家属院,113.641953,34.793072,大桥局一公司家属院,河南省郑州市金水区丰乐路大桥局一公司家属院,1
1360,瀚宇天悦,113.65123,34.843868,瀚宇天悦,河南省郑州市金水区丰庆路办事处瀚宇天悦,2
1361,朝阳路15号院,113.688103,34.800556,朝阳路15号院,河南省郑州市金水区花园路朝阳路15号院,1
1362,蓝堡湾,113.672981,34.79612,蓝堡湾,河南省郑州市金水区东风路蓝堡湾,1
1363,外贸小区,113.625717,34.791161,外贸小区,河南省郑州市金水区南阳新村沙口路外贸小区,1
1364,雅颂南区,113.658096,34.829281,雅颂南区,河南省郑州市金水区三全路雅颂南区,1
1365,金成时代小区,113.706062,34.77742,金成时代小区,河南省郑州市金水区丰产路办事处金成时代广场,1
1366,文博东路29号院,113.673423,34.792777,文博东路29号院,河南省郑州市金水区文博东路29号院,1
1367,正商恒钻,113.630562,34.78553,正商恒钻,河南省郑州市金水区沙口路正商恒钻,1
1368,鑫苑名家,113.701698,34.795818,鑫苑名家,河南省郑州市金水区鑫苑路鑫苑名家,4
1369,,113.71125,34.434639,新村镇,河南省郑州市新郑市新村镇,2
1370,,113.685867,34.610031,龙湖镇,河南省郑州市新郑市龙湖镇,1
1371,丹石锦园,113.704559,34.635612,丹石锦园,河南省郑州市新郑市龙湖镇丹石锦园,1
1372,,114.210503,34.290531,南曹乡,河南省开封市尉氏县南曹乡,1
1373,,114.191757,34.29623,南曹乡后孙村,河南省开封市尉氏县南曹乡后孙村,2
1374,北曹村南头,114.204208,34.315849,北曹村南头,河南省开封市尉氏县南曹乡北曹村南头,1
1375,,114.204208,34.315849,南曹乡北曹村,河南省开封市尉氏县南曹乡北曹村,1
1376,UK中心小区,114.180847,34.394531,UK中心小区,河南省开封市尉氏县城关镇UK中心小区,1
1377,,114.755257,34.454288,滩上村,河南省开封市杞县苏木乡滩上村,2
1378,西关下关新村,114.775307,34.55611,西关下关新村,河南省开封市杞县金城街道西关下关新村,2
1379,,114.747093,34.238831,竹林乡许村岗村,河南省开封市杞县竹林乡许村岗村,1
1380,,114.880379,34.548439,裴村店乡吕西村,河南省开封市杞县裴村店乡吕西村,1
1381,,114.316032,34.766579,南苑街道,河南省开封市鼓楼区南苑街道,1
1382,牛墩村,114.315308,34.74926,牛墩村,河南省开封市鼓楼区南苑街道牛墩村,1
1383,建丰新城小区,114.378998,34.823738,建丰新城小区,河南省开封市龙亭区北郊乡建丰新城小区,2
1384,县委西二巷,114.46524,34.48045,县委西二巷,河南省开封市通许县县委西二巷,1
1385,,114.491447,34.407871,张斗庄村,河南省开封市通许县邸阁乡张斗庄村,1
1386,,114.480438,34.387562,厉庄乡塔湾村委杨庄村,河南省开封市通许县厉庄乡塔湾村委杨庄村,1
1387,,114.639069,34.386471,夏寨大队汤庄村,河南省开封市通许县四所楼镇夏寨大队汤庄村,1
1388,王高自然村,115.141472,34.934818,王高自然村,河南省开封市兰考县南彰镇翟庄村王高自然村,1
1389,城北香阁小区,114.821365,34.835896,城北香阁小区,河南省开封市兰考县城北香阁小区,1
1390,城西班牙小镇2期,114.8088,34.840672,城西班牙小镇2期,河南省开封市兰考县城西班牙小镇2期,1
1391,,115.045021,34.908352,张庄寨村,河南省开封市兰考县小宋镇张庄寨村,1
1392,,114.888557,34.947071,谷西村,河南省开封市兰考县谷营镇谷西村,1
1393,,114.625732,32.051281,独山村,河南省信阳市光山县仙居乡独山村,1
1394,,114.882339,32.080688,十里棚吴明村,河南省信阳市光山县十里棚吴明村,1
1395,城关一中,114.906815,32.004074,城关一中,河南省信阳市光山县城关一中,1
1396,,114.971642,31.977592,胡店村,河南省信阳市光山县斛山乡胡店村,1
1397,,114.957382,31.986401,赵桥村,河南省信阳市光山县斛山乡赵桥村,2
1398,,114.847504,31.83642,冷畈村,河南省信阳市光山县晏河乡冷畈村,1
1399,,114.823837,31.81105,刘畈村,河南省信阳市光山县晏河乡刘畈村,1
1400,,114.865677,31.912621,万河村,河南省信阳市光山县槐店万河村,1
1401,,114.619507,31.84915,李庄村,河南省信阳市光山县殷棚乡李庄村,1
1402,,115.097,31.7456,冯寨村,河南省信阳市光山县白雀园镇冯寨村,1
1403,,115.102303,31.786079,白雀园镇街道,河南省信阳市光山县白雀园镇街道,1
1404,,114.906853,32.020142,紫水办事处,河南省信阳市光山县紫水办事处,1
1405,,114.916901,31.995689,紫水街道,河南省信阳市光山县紫水街道,1
1406,金泰领秀城,114.914337,31.99576,金泰领秀城,河南省信阳市光山县紫水街道金泰领秀城,1
1407,,114.636711,31.95797,徐寨村,河南省信阳市光山县马畈镇徐寨村,1
1408,,115.037727,31.816481,王湾村,河南省信阳市光山县凉亭乡王湾村,1
1409,,114.731407,32.001911,北向店乡街道,河南省信阳市光山县北向店乡街道,1
1410,,115.081429,31.89052,邱大湾村,河南省信阳市光山县斛山乡邱大湾村,1
1411,,114.660667,31.81938,环山村,河南省信阳市光山县南向店乡环山村,1
1412,玲珑庭院,114.904251,31.99399,玲珑庭院,河南省信阳市光山县弦山街道玲珑庭院,1
1413,,115.102303,31.786079,中桥村,河南省信阳市光山县白雀园镇中桥村,1
1414,,114.658813,32.045719,滕岗村,河南省信阳市光山县仙居乡滕岗村,1
1415,,115.088928,31.78167,土庙村,河南省信阳市光山县白雀园镇土庙村,1
1416,,115.283043,31.72707,沈畈村,河南省信阳市商城县吴河乡沈畈村,1
1417,迎春台,115.410492,31.798849,迎春台,河南省信阳市商城县城关镇迎春台,1
1418,,115.413467,31.89975,赵鹏村,河南省信阳市商城县河凤桥乡赵鹏村,1
1419,,115.408943,31.797159,赤城街道,河南省信阳市商城县赤城街道,1
1420,,115.380562,31.813118,鲇鱼山办事处,河南省信阳市商城县鲇鱼山办事处,1
1421,,115.315247,31.562269,许冲村,河南省信阳市商城县达权店乡许冲村,1
1422,,115.44381,31.972019,上石桥镇街道,河南省信阳市商城县上石桥镇街道,2
1423,,115.254517,31.660299,冯店乡杨摆埂村,河南省信阳市商城县冯店乡杨摆埂村,1
1424,任巷,115.408943,31.797159,任巷,河南省信阳市商城县赤城街道任巷,1
1425,时代商贸城,115.393547,31.794701,时代商贸城,河南省信阳市商城县赤城街道时代商贸城,1
1426,雍华园小区,115.414314,31.807037,雍华园小区,河南省信阳市商城县赤城街道雍华园小区,1
1427,,115.182091,31.827499,西街,河南省信阳市商城县观庙镇西街,1
1428,,115.183952,31.83297,观庙村,河南省信阳市商城县观庙镇观庙村,1
1429,,115.257713,31.52556,新建村,河南省信阳市商城县长竹园乡新建村,1
1430,,115.412567,31.944201,王店村,河南省信阳市商城县双椿铺镇王店村,1
1431,锦绣家园,115.398422,31.81031,锦绣家园,河南省信阳市商城县赤城街道锦绣家园,1
1432,,114.573723,31.61227,居畈村,河南省信阳市新县卡房乡居畈村,1
1433,,114.982277,31.53669,将军路,河南省信阳市新县将军路,1
1434,,114.884277,31.63912,京九路,河南省信阳市新县新集镇京九路,1
1435,,114.814697,31.52729,箭厂河乡,河南省信阳市新县箭厂河乡,1
1436,,114.592163,31.626471,朱畈村,河南省信阳市新县卡房乡朱畈村,1
1437,,114.814697,31.52729,詹湾村,河南省信阳市新县箭厂河乡詹湾村,1
1438,金水小学,114.890884,31.619196,金水小学,河南省信阳市新县新集镇金水小学,1
1439,,114.878777,31.64106,长潭二街,河南省信阳市新县新集镇长潭二街,1
1440,东方今典,114.107788,32.139061,东方今典,河南省信阳市羊山新区东方今典,1
1441,府都花园,114.074982,32.143738,府都花园,河南省信阳市羊山新区府都花园,2
1442,,114.064888,32.138359,羊山1街,河南省信阳市羊山新区羊山1街,1
1443,,114.064888,32.138359,羊山四街,河南省信阳市羊山新区羊山四街,1
1444,二号公馆,114.132507,32.143078,二号公馆,河南省信阳市羊山新区龙飞山办事处二号公馆,1
1445,东方今典A区,114.108917,32.139069,东方今典A区,河南省信阳市羊山新区新十一大道东方今典A区,1
1446,龙飞山办事处恒大名都,114.125343,32.13987,龙飞山办事处恒大名都,河南省信阳市羊山新区龙飞山办事处恒大名都,1
1447,壹号公馆,114.08294,32.13223,壹号公馆,河南省信阳市羊山新区新六大街壹号公馆,1
1448,,114.57148,31.907471,吊桥村,河南省信阳市罗山县周党镇吊桥村,1
1449,,114.465683,32.089481,子路乡,河南省信阳市罗山县子路乡,1
1450,,114.414139,32.160881,楠杆镇街道,河南省信阳市罗山县楠杆镇街道,1
1451,,114.34259,31.966061,檀墩村,河南省信阳市罗山县灵山镇檀墩村,1
1452,老汽车站,114.529968,32.191978,老汽车站,河南省信阳市罗山县老汽车站,1
1453,,114.533737,32.185989,龙山街道,河南省信阳市罗山县龙山街道,1
1454,赵园村,114.521873,32.20343,赵园村,河南省信阳市罗山县丽水街道办事处赵园村,1
1455,,114.560204,31.93194,杨冲村,河南省信阳市罗山县周党镇杨冲村,2
1456,宝城街道某家属院,114.540024,32.206848,宝城街道某家属院,河南省信阳市罗山县宝城街道某家属院,2
1457,名仕家园,114.5186,32.202179,名仕家园,河南省信阳市罗山县丽水街道名仕家园,1
1458,宝城公馆,114.512527,32.2127,宝城公馆,河南省信阳市罗山县丽水街道宝城公馆,1
1459,府邸花园,114.510323,32.200481,府邸花园,河南省信阳市罗山县丽水街道府邸花园,2
1460,新都名苑,114.501732,32.199539,新都名苑,河南省信阳市罗山县丽水街道新都名苑,1
1461,欣荣花园,114.501991,32.197121,欣荣花园,河南省信阳市罗山县丽水街道欣荣花园,1
1462,,114.475807,32.089149,罗寨村,河南省信阳市罗山县子路镇罗寨村,1
1463,环城西路某家属院,114.507263,32.213291,环城西路某家属院,河南省信阳市罗山县宝城街道北大街环城西路某家属院,1
1464,,114.234444,31.86845,九里村,河南省信阳市罗山县铁铺镇九里村,1
1465,沈畈村,114.536613,32.186989,沈畈村,河南省信阳市罗山县龙山街道沈畈村,1
1466,天湖雅苑,114.509178,32.196522,天湖雅苑,河南省信阳市罗山县丽水街道天湖雅苑,1
1467,温州花园,114.517021,32.199951,温州花园,河南省信阳市罗山县丽水街道温州花园,1
1468,,114.511147,31.951799,中山村,河南省信阳市罗山县周党镇中山村,1
1469,,114.50367,31.82918,定远乡北洼村,河南省信阳市罗山县定远乡北洼村,1
1470,水岸国际花园,114.523232,32.19659,水岸国际花园,河南省信阳市罗山县宝城街道水岸国际花园,1
1471,淮南市场,114.530113,32.200489,淮南市场,河南省信阳市罗山县宝城街道淮南市场,1
1472,,114.587173,32.03149,庙仙乡吴乡村,河南省信阳市罗山县庙仙乡吴乡村,1
1473,,114.353012,31.898479,马店村,河南省信阳市罗山县彭新镇马店村,1
1474,,114.460182,32.142429,郑堂村,河南省信阳市罗山县楠杆镇郑堂村,1
1475,,114.438522,31.90189,肖庄村,河南省信阳市罗山县潘新镇肖庄村,1
1476,,114.284828,31.941311,董桥村,河南省信阳市罗山县灵山镇董桥村,1
1477,,114.540024,32.206848,宝城街道,河南省信阳市罗山县宝城街道,1
1478,天元商贸城,114.533249,32.190632,天元商贸城,河南省信阳市罗山县龙山街道天元商贸城,1
1479,,114.399368,32.067558,殷湾村,河南省信阳市罗山县子路乡殷湾村,1
1480,老派出所附近,114.353012,31.898479,老派出所附近,河南省信阳市罗山县彭新镇老派出所附近,1
1481,,114.102859,32.014961,白庙村,河南省信阳市浉河区东双河镇白庙村,1
1482,,114.053581,32.140408,京深路,河南省信阳市浉河区京深路,1
1483,徐家湾,114.066963,32.137329,徐家湾,河南省信阳市浉河区北京大街徐家湾,1
1484,,114.048317,32.075031,十三里桥乡街道,河南省信阳市浉河区十三里桥乡街道,2
1485,,113.799248,32.246658,余寨村,河南省信阳市浉河区吴家店镇余寨村,1
1486,,113.840591,32.281219,邱湾村,河南省信阳市浉河区吴家店镇邱湾村,1
1487,文馨园,114.08844,32.112202,文馨园,河南省信阳市浉河区大庆路文馨园,1
1488,,114.107407,32.099361,工区路,河南省信阳市浉河区工区路,2
1489,,113.961319,32.27243,翟寨村,河南省信阳市浉河区平昌关镇翟寨村,1
1490,宝丰华府,114.071648,32.119839,宝丰华府,河南省信阳市浉河区文化路宝丰华府,3
1491,,114.094116,31.947399,新街,河南省信阳市浉河区柳林乡新街,1
1492,,114.094116,31.947399,红檀村,河南省信阳市浉河区柳林乡红檀村,1
1493,,114.107407,32.099361,工区路,河南省信阳市浉河区浉河区工区路,1
1494,,113.836601,32.025219,浉河港乡,河南省信阳市浉河区浉河港乡,1
1495,,113.939102,31.975451,马家畈村,河南省信阳市浉河区浉河港镇马家畈村,1
1496,,113.998573,32.231899,出山村,河南省信阳市浉河区游河乡出山村,1
1497,红太阳小区,114.084869,32.119499,红太阳小区,河南省信阳市浉河区红太阳小区,1
1498,经典花园,114.063164,32.118221,经典花园,河南省信阳市浉河区经典花园,1
1499,,114.074699,32.113762,胜利南路,河南省信阳市浉河区胜利南路,1
1500,,114.05703,32.163601,金牛山街道,河南省信阳市浉河区金牛山街道,4
1501,,114.062248,32.152969,金牛路,河南省信阳市浉河区金牛路,1
1502,阳光宾馆,114.080421,32.127811,阳光宾馆,河南省信阳市浉河区阳光宾馆,1
1503,文馨园,114.08844,32.112202,文馨园,河南省信阳市浉河区民权街道文馨园,1
1504,,114.119362,31.91592,堰冲村,河南省信阳市浉河区柳林乡堰冲村,1
1505,,114.19001,32.013069,黄楼村,河南省信阳市浉河区东双河镇黄楼村,1
1506,胜利南路某家属院,114.070038,32.121281,胜利南路某家属院,河南省信阳市浉河区胜利南路某家属院,1
1507,,113.840591,32.281219,向昌湾村,河南省信阳市浉河区吴家店镇向昌湾村,1
1508,东方红大道怡和名门,114.070808,32.123589,东方红大道怡和名门,河南省信阳市浉河区老城街道东方红大道怡和名门,1
1509,,113.999977,32.01881,十三里桥小庙村,河南省信阳市浉河区十三里桥小庙村,1
1510,,115.851181,32.47681,汤岗村,河南省信阳市固始县三河尖乡汤岗村,2
1511,,115.8181,32.339699,兴隆村,河南省信阳市固始县县蒋集镇兴隆村,1
1512,,115.380409,32.228081,六里棚,河南省信阳市固始县城郊乡六里棚,1
1513,,115.924919,32.073879,长岗村,河南省信阳市固始县张广乡长岗村,1
1514,,115.830872,32.38583,巴集村,河南省信阳市固始县徐集乡巴集村,1
1515,六里棚社区,115.68177,32.201553,六里棚社区,河南省信阳市固始县番城街道办事处六里棚社区,1
1516,,115.776672,32.299961,蒋集镇,河南省信阳市固始县蒋集镇,1
1517,,115.834183,32.32531,夏庙村,河南省信阳市固始县陈集乡夏庙村,1
1518,,115.760231,32.29781,新街村,河南省信阳市固始县蒋集镇新街村,1
1519,,115.658371,32.025318,郭陆滩桥口村,河南省信阳市固始县郭陆滩桥口村,1
1520,,115.586151,31.967739,前楼村,河南省信阳市固始县郭陆滩镇前楼村,1
1521,,115.830872,32.38583,徐集乡街道,河南省信阳市固始县徐集乡街道,1
1522,,115.827812,32.378139,马寨村,河南省信阳市固始县徐集乡马寨村,2
1523,番城办事处仁里社区桂花苑小区,115.659714,32.206181,番城办事处仁里社区桂花苑小区,河南省信阳市固始县番城办事处仁里社区桂花苑小区,1
1524,,115.65847,32.188629,蓼城街道民主三巷,河南省信阳市固始县蓼城街道民主三巷,1
1525,,115.823219,32.37233,徐集乡顺河村,河南省信阳市固始县徐集乡顺河村,1
1526,,115.851181,32.47681,汤岗村,河南省信阳市固始县三河尖镇汤岗村,1
1527,,115.802193,32.408421,大桥村,河南省信阳市固始县丰港乡大桥村,1
1528,,115.799408,31.99526,迎河村,河南省信阳市固始县张老埠乡迎河村,1
1529,,115.86657,32.386402,季楼村,河南省信阳市固始县徐集乡季楼村,1
1530,淮滨花园,115.410278,32.47205,淮滨花园,河南省信阳市淮滨县滨湖街道淮滨花园,1
1531,,115.522346,32.441711,小围村,河南省信阳市淮滨县王家岗乡小围村,1
1532,,115.23909,32.358158,新寨村,河南省信阳市淮滨县邓湾乡新寨村,1
1533,,115.391769,32.44352,顺河办事处,河南省信阳市淮滨县顺河办事处,1
1534,,115.486809,32.459629,李营村,河南省信阳市淮滨县王家岗乡李营村,1
1535,南湾街道谭庙村,113.978699,32.146751,南湾街道谭庙村,河南省信阳市南湾风景管理区南湾街道谭庙村,1
1536,茶韵路茗阳天下,114.037064,32.123661,茶韵路茗阳天下,河南省信阳市南湾风景管理区南湾风景管理区南湾街道茶韵路茗阳天下,1
1537,,114.781212,32.225849,八里岔,河南省信阳市息县八里岔乡八里岔,1
1538,,114.876549,32.282612,戴东村,河南省信阳市息县关店乡戴东村,1
1539,,114.999451,32.386662,街西村,河南省信阳市息县夏庄镇街西村,1
1540,,114.763519,32.368801,八里新村,河南省信阳市息县淮河街道八里新村,1
1541,老石油公司家属院,114.73716,32.362499,老石油公司家属院,河南省信阳市息县淮河街道老石油公司家属院,1
1542,,114.874512,32.376179,项店镇街道,河南省信阳市息县项店镇街道,1
1543,,114.874512,32.376179,街村,河南省信阳市息县项店镇街村,5
1544,,114.850838,32.452332,杨店乡永红村,河南省信阳市息县杨店乡永红村,1
1545,街村中学附近,114.874512,32.376179,街村中学附近,河南省信阳市息县项店镇街村中学附近,2
1546,,115.008385,32.401169,街村,河南省信阳市息县夏庄镇街村,1
1547,,114.930252,32.41552,董围孜村,河南省信阳市息县项店镇董围孜村,1
1548,台北城上城,114.110748,32.109131,台北城上城,河南省信阳市平桥区台北城上城,2
1549,,113.964447,32.262691,甘岸街道,河南省信阳市平桥区孔庄村甘岸街道,1
1550,,114.131119,32.107422,平桥街道,河南省信阳市平桥区平桥街道,2
1551,,114.115143,32.12326,平西办事处,河南省信阳市平桥区平西办事处,1
1552,和美小区,114.116745,32.099178,和美小区,河南省信阳市平桥区平西街道南一胡同和美小区,1
1553,金辉花园,114.042839,32.45644,金辉花园,河南省信阳市平桥区明港镇金辉花园,1
1554,河源二号公馆,114.079018,32.14769,河源二号公馆,河南省信阳市平桥区河源二号公馆,1
1555,白高庙小区,114.077377,32.136574,白高庙小区,河南省信阳市平桥区白高庙小区,1
1556,阳光花园,114.118729,32.110779,阳光花园,河南省信阳市平桥区阳光花园,2
1557,凯旋城,114.128471,32.115089,凯旋城,河南省信阳市平桥区龙江路凯旋城,1
1558,万象城彩虹苑,114.127747,32.09383,万象城彩虹苑,河南省信阳市平桥区万象城彩虹苑,1
1559,五里办事处凤台居委会,114.295067,32.14933,五里办事处凤台居委会,河南省信阳市平桥区五里办事处凤台居委会,2
1560,平昌村某家属院,113.885292,32.357845,平昌村某家属院,河南省信阳市平桥区平昌关镇平昌村某家属院,1
1561,长乐园,114.05011,32.463451,长乐园,河南省信阳市平桥区明港镇农工路长乐园,2
1562,,113.931664,32.410069,查山乡街道,河南省信阳市平桥区查山乡街道,1
1563,,114.298721,32.321331,肖王镇街道,河南省信阳市平桥区肖王镇街道,1
1564,,114.107849,32.34013,郭湾村,河南省信阳市平桥区胡店乡郭湾村,1
1565,龙江名邸,114.114616,32.119171,龙江名邸,河南省信阳市平桥区平西街道龙江名邸,1
1566,建设路金水源,114.041267,32.465614,建设路金水源,河南省信阳市平桥区明港镇建设路金水源,1
1567,,114.216789,32.43343,肖店乡齐营村,河南省信阳市平桥区肖店乡齐营村,1
1568,,113.934898,32.404961,五里街道居委会新街,河南省信阳市平桥区五里街道居委会新街,1
1569,,113.889412,32.356258,平昌关镇,河南省信阳市平桥区平昌关镇,1
1570,,113.964828,32.343151,朱庄村,河南省信阳市平桥区朱庄村,1
1571,,113.931664,32.410069,工商路,河南省信阳市平桥区查山乡工商路,1
1572,电管所附近,113.825729,32.482658,电管所附近,河南省信阳市平桥区王岗乡电管所附近,1
1573,,115.250877,31.899139,晏岗村,河南省信阳市潢川县双柳树镇晏岗村,1
1574,,115.06562,32.102375,弋阳街道,河南省信阳市潢川县弋阳街道,1
1575,经济开发区,115.06562,32.102375,经济开发区,河南省信阳市潢川县弋阳街道经济开发区,1
1576,,115.044571,32.142284,春申办事处西关街,河南省信阳市潢川县春申办事处西关街,1
1577,,115.09362,32.1497,八里村,河南省信阳市潢川县谈店乡八里村,1
1578,,115.21843,32.184731,定城办事处县后街,河南省信阳市潢川县长堰村定城办事处县后街,1
1579,,115.21843,32.184731,长堰村,河南省信阳市潢川县黄岗乡长堰村,1
1580,,115.250877,31.899139,晏岗村,河南省信阳市潢川县双柳树店乡晏岗村,1
1581,京五小区,115.053291,32.140781,京五小区,河南省信阳市潢川县定城街道草湖路京五小区,1
1582,草湖路北苑,115.055702,32.146118,草湖路北苑,河南省信阳市潢川县定城街道草湖路北苑,1
1583,,115.093491,32.322762,淮凤村,河南省信阳市潢川县来龙乡淮凤村,2
1584,,115.084717,32.12706,弋阳街道,河南省信阳市潢川县刘靛行村弋阳街道,1
1585,经湖小区,115.053291,32.140781,经湖小区,河南省信阳市潢川县定城街道草湖路经湖小区,1
1586,,115.071938,32.12962,弋阳街道,河南省信阳市潢川县建国新村弋阳街道,1
1587,,115.549362,34.097359,包公庙乡十西村,河南省商丘市睢阳区包公庙乡十西村,2
1588,宇鑫小区,115.660042,34.408489,宇鑫小区,河南省商丘市睢阳区南京路与归德路交叉口宇鑫小区,1
1589,名门城书苑花园,115.648331,34.375671,名门城书苑花园,河南省商丘市睢阳区古宋街道名门城书苑花园,1
1590,振华南苑小区,115.608467,34.348713,振华南苑小区,河南省商丘市睢阳区振华南苑小区,1
1591,长江路与开元路交叉口南,115.661461,34.413021,长江路与开元路交叉口南,河南省商丘市睢阳区长江路与开元路交叉口南,1
1592,,115.587868,34.375938,古宋办事处常路口村,河南省商丘市睢阳区古宋办事处常路口村,1
1593,,115.643532,34.40929,宏昌路附近,河南省商丘市睢阳区东方办事处宏昌路附近,1
1594,牡丹小区,115.683128,34.415298,牡丹小区,河南省商丘市永城市新城区牡丹小区,1
1595,永鑫园东区,116.372162,33.949257,永鑫园东区,河南省商丘市永城市永鑫园东区,1
1596,天齐村西刘店组,116.418549,33.980671,天齐村西刘店组,河南省商丘市永城市演集镇天齐村西刘店组,1
1597,闫各村,116.095963,33.94381,闫各村,河南省商丘市永城市酂城镇夏柏园村闫各村,1
1598,粮管所家属院,116.220551,33.800152,粮管所家属院,河南省商丘市永城市马桥镇粮管所家属院,3
1599,,116.196121,33.787029,闫庙村,河南省商丘市永城市马桥镇闫庙村,1
1600,,116.192207,33.798988,马庄村,河南省商丘市永城市马桥镇马庄村,4
1601,发展广场,116.452522,33.929916,发展广场,河南省商丘市永城市发展广场,1
1602,岚湾国际小区,116.446121,33.937881,岚湾国际小区,河南省商丘市永城市东城区岚湾国际小区,1
1603,,116.418549,33.980671,天齐村,河南省商丘市永城市演集乡天齐村,1
1604,,115.829277,34.449589,高庄村,河南省商丘市虞城县李老家乡高庄村,1
1605,木兰大道木兰小区,115.846718,34.39246,木兰大道木兰小区,河南省商丘市虞城县城关镇木兰大道木兰小区,1
1606,,115.730209,34.206669,魏楼村,河南省商丘市虞城县店集乡魏楼村,1
1607,,115.404022,34.585815,宋胡同村,河南省商丘市宁陵县孔集乡宋胡同村,2
1608,,115.258438,34.309231,温庙村,河南省商丘市宁陵县华堡镇温庙村,1
1609,,115.316597,34.50425,王坡楼村,河南省商丘市宁陵县石桥镇王坡楼村,2
1610,,115.277557,34.393211,胡店村,河南省商丘市宁陵县刘楼乡胡店村,1
1611,,115.273422,34.47023,郭英村,河南省商丘市宁陵县城郊乡郭英村,1
1612,,115.404091,34.585621,宋胡洞东村,河南省商丘市宁陵县孔集乡宋胡洞东村,1
1613,吴庄,115.30544,34.09114,吴庄,河南省商丘市柘城县双河办事处吴庄,1
1614,,115.150841,34.004002,张店村委大史庄,河南省商丘市柘城县安平镇张店村委大史庄,1
1615,,115.206718,34.099659,天门赵村,河南省商丘市柘城县岗王乡天门赵村,2
1616,,115.292061,34.036812,张桥镇张桥,河南省商丘市柘城县张桥镇张桥,1
1617,德育巷,115.319923,34.091404,德育巷,河南省商丘市柘城县春水办事处德育巷,1
1618,兴中道,115.333069,34.082581,兴中道,河南省商丘市柘城县春水街道办事处兴中道,1
1619,,115.133499,34.101929,刘楼小朱庄,河南省商丘市柘城县申桥乡刘楼小朱庄,1
1620,,115.228683,34.028542,后李,河南省商丘市柘城县皇集乡后李,1
1621,,115.298103,34.071312,德育巷,河南省商丘市柘城县城关镇德育巷,1
1622,,115.2948,34.035912,张桥村,河南省商丘市柘城县张桥镇张桥村,1
1623,,115.143669,34.000549,凤凰街道,河南省商丘市柘城县凤凰街道,1
1624,,115.30265,34.037746,张桥镇,河南省商丘市柘城县张桥镇,1
1625,,115.333069,34.082581,春水街道办事处,河南省商丘市柘城县春水街道办事处,2
1626,学苑小区,115.323914,34.085991,学苑小区,河南省商丘市柘城县浦东街道办事处学苑小区,1
1627,,115.121178,34.61977,南华街道东区,河南省商丘市民权县南华街道东区,1
1628,花园吴老家,115.114098,34.597919,花园吴老家,河南省商丘市民权县花园吴老家,1
1629,,116.08107,34.098511,会亭镇杜庄,河南省商丘市夏邑县会亭镇杜庄,1
1630,,116.12969,34.23929,城关一环路骆集路口,河南省商丘市夏邑县城关一环路骆集路口,1
1631,,116.132011,34.23341,闫刘庄村,河南省商丘市夏邑县城关镇闫刘庄村,1
1632,,116.186462,34.216148,许庄,河南省商丘市夏邑县曹集乡许庄,2
1633,,115.995491,34.03231,杨集高庄,河南省商丘市夏邑县杨集高庄,1
1634,,115.980667,34.12175,李营村周楼,河南省商丘市夏邑县罗庄乡李营村周楼,1
1635,,116.012497,34.40678,良种厂村,河南省商丘市夏邑县车站镇良种厂村,1
1636,,116.083549,34.139889,金庄村,河南省商丘市夏邑县郭店乡金庄村,1
1637,,116.08107,34.098511,会亭镇,河南省商丘市夏邑县会亭镇,1
1638,杨堂新村,115.671761,34.45052,杨堂新村,河南省商丘市示范区中州街道杨堂新村,2
1639,黄楼东村,115.688599,34.44442,黄楼东村,河南省商丘市示范区中州街道黄楼东村,1
1640,富贵华庭,115.666451,34.402908,富贵华庭,河南省商丘市示范区平安街道富贵华庭,2
1641,,115.75502,34.453529,孙集村,河南省商丘市示范区张阁镇孙集村,1
1642,,115.591751,34.521389,潘口南街村,河南省商丘市梁园区李庄乡潘口南街村,1
1643,豫立首府,115.669891,34.44479,豫立首府,河南省商丘市梁园区东风街道豫立首府,6
1644,,115.728828,34.57975,中陈村,河南省商丘市梁园区刘口乡中陈村,1
1645,,115.736122,34.557991,中陈村王庄,河南省商丘市梁园区刘口乡中陈村王庄,1
1646,一建公司家属院,115.648529,34.431179,一建公司家属院,河南省商丘市梁园区前进街道一建公司家属院,1
1647,,115.507431,34.58046,张庄村,河南省商丘市梁园区孙付集乡张庄村,1
1648,昆仑路八一新苑,115.612617,34.432838,昆仑路八一新苑,河南省商丘市梁园区平原街道昆仑路八一新苑,1
1649,,115.530251,34.365631,沈庄,河南省商丘市梁园区沈庄,1
1650,,115.665237,34.435669,叶庄南新村,河南省商丘市梁园区白云办事处叶庄南新村,1
1651,酒厂路叶庄村,115.666977,34.439362,酒厂路叶庄村,河南省商丘市梁园区白云街道酒厂路叶庄村,1
1652,,115.146278,34.437401,潘庄村,河南省商丘市睢县尤吉屯乡潘庄村,1
1653,新生村,112.46907,34.679771,新生村,河南省洛阳市老城区新生村,1
1654,南关市环保局家属院,112.465309,34.673397,南关市环保局家属院,河南省洛阳市老城区南关市环保局家属院,1
1655,,112.411636,34.632381,滨河新村,河南省洛阳市高新区滨河新村,2
1656,,112.7099,34.578239,大口镇,河南省洛阳市偃师市大口镇,1
1657,金梨苑小区,112.431915,34.678677,金梨苑小区,河南省洛阳市西工区金梨苑小区,1
1658,惠安小区,112.139412,34.733952,惠安小区,河南省洛阳市新安县惠安小区,1
1659,四通路2号院,112.516342,34.720005,四通路2号院,河南省洛阳市瀍河区四通路2号院,2
1660,龙源花园,112.481308,34.701889,龙源花园,河南省洛阳市瀍河区龙源花园,1
1661,银河小区,112.521385,34.722393,银河小区,河南省洛阳市瀍河区杨文街道银河小区,1
1662,建业高尔夫,112.433823,34.63332,建业高尔夫,河南省洛阳市洛龙区建业高尔夫,1
1663,升龙城,112.419807,34.644859,升龙城,河南省洛阳市涧西区升龙城,1
1664,洛热社区,112.384926,34.664364,洛热社区,河南省洛阳市涧西区洛热社区,1
1665,广州市场西院,112.392097,34.661362,广州市场西院,河南省洛阳市涧西区湖北路街道广州市场西院,1
1666,凯旋国际,113.298302,33.716759,凯旋国际,河南省平顶山湛河区南环路街道凯旋国际,1
1667,大同二里建材工业总公司宿舍,110.337753,20.0334,大同二里建材工业总公司宿舍,海南省海口市龙华区大同二里建材工业总公司宿舍,1
1668,金湖雅居B栋,110.322998,20.00482,金湖雅居B栋,海南省海口市龙华区金宇街道金地路金湖雅居B栋,1
1669,椰海昌茂城邦小区,110.339142,19.98041,椰海昌茂城邦小区,海南省海口市龙华区城西镇椰海昌茂城邦小区,1
1670,向阳里一巷16号,110.350731,19.987631,向阳里一巷16号,海南省海口市琼山区大园路向阳里一巷16号,1
1671,东盛名苑A栋,110.347008,19.99017,东盛名苑A栋,海南省海口市琼山区振兴路东盛名苑A栋,1
1672,凤翔桥286号,110.356949,19.98786,凤翔桥286号,海南省海口市琼山区凤翔东路凤翔桥286号,1
1673,振兴里,110.349113,19.989882,振兴里,海南省海口市琼山区大园路振兴里,1
1674,,110.37506,19.98804,新大洲大道321号2楼,海南省海口市琼山区新大洲大道321号2楼,1
1675,白坡里175号,110.336121,20.022667,白坡里175号,海南省海口市美兰区蓝天街道白坡里175号,1
1676,陕西南路地铁站,121.461998,31.208599,陕西南路地铁站,上海市黄浦区陕西南路地铁站,1
1677,金园一路1118弄,121.31561,31.24792,金园一路1118弄,上海市嘉定区江桥镇金园一路1118弄,1
1678,首创旭辉城,121.200417,31.413019,首创旭辉城,上海市嘉定区首创旭辉城,1
1679,华润中央公园,121.317062,31.311838,华润中央公园,上海市嘉定区华润中央公园,1
1680,光明D9空间,121.264946,31.347109,光明D9空间,上海市嘉定区光明D9空间,1
1681,发祥路89号,121.33683,31.24547,发祥路89号,上海市嘉定区发祥路89号,1
1682,永辉超市（嘉定宝龙广场店）,121.260529,31.345648,永辉超市（嘉定宝龙广场店）,上海市嘉定区永辉超市（嘉定宝龙广场店）,1
1683,虹桥火车站,121.389816,31.1686,虹桥火车站,上海市闵行区虹桥火车站,1
1684,中华美路60弄,121.3301,31.21915,中华美路60弄,上海市闵行区中华美路60弄,1
1685,地铁虹桥2号航站楼站,121.422447,31.19659,地铁虹桥2号航站楼站,上海市闵行区地铁虹桥2号航站楼站,1
1686,大润发（华漕店）,121.288918,31.212481,大润发（华漕店）,上海市闵行区大润发（华漕店）,1
1687,爱博一村,121.310722,31.20664,爱博一村,上海市闵行区爱博一村,1
1688,虹桥国际机场,121.337601,31.19668,虹桥国际机场,上海市闵行区虹桥国际机场,1
1689,城市超市（虹梅路店）,121.288101,31.20961,城市超市（虹梅路店）,上海市闵行区城市超市（虹梅路店）,1
1690,虹六菜市场,121.382591,31.18428,虹六菜市场,上海市闵行区虹六菜市场,1
1691,虹桥花苑,121.388138,31.18898,虹桥花苑,上海市闵行区虹桥花苑,1
1692,嘉利明珠城,121.4636,31.27363,嘉利明珠城,上海市静安区嘉利明珠城,1
1693,闻喜路935弄,121.44716,31.30789,闻喜路935弄,上海市静安区闻喜路935弄,1
1694,安吉斯铭汽车销售服务有限公司,121.454147,31.193081,安吉斯铭汽车销售服务有限公司,上海市徐汇区安吉斯铭汽车销售服务有限公司,1
1695,东安二村,121.454437,31.18749,东安二村,上海市徐汇区枫林路街道东安二村,1
1696,炎虹路76弄,121.464785,31.2026,炎虹路76弄,上海市徐汇区炎虹路76弄,1
1697,地铁大木桥路站,121.465134,31.202801,地铁大木桥路站,上海市徐汇区地铁大木桥路站,1
1698,地铁陕西南路站,121.45681,31.214729,地铁陕西南路站,上海市徐汇区地铁陕西南路站,1
1699,尚海湾豪庭,121.459511,31.179001,尚海湾豪庭,上海市徐汇区尚海湾豪庭,1
1700,连亮路111弄,121.392059,31.291031,连亮路111弄,上海市普陀区曹杨新村街道连亮路111弄,1
1701,西乡路91弄,121.42646,31.26913,西乡路91弄,上海市普陀区西乡路91弄,1
1702,虹桥路1024弄,121.419243,31.194629,虹桥路1024弄,上海市长宁区虹桥街道虹桥路1024弄,1
1703,新华豪庭,121.431282,31.203419,新华豪庭,上海市长宁区新华豪庭,1
1704,海尚菊苑,121.36705,31.354639,海尚菊苑,上海市宝山区海尚菊苑,1
1705,采菊苑,121.366638,31.34984,采菊苑,上海市宝山区采菊苑,1
1706,共康雅苑（二期）,121.42256,31.33,共康雅苑（二期）,上海市宝山区共康雅苑（二期）,1
1707,南秀雅苑,121.392418,31.29599,南秀雅苑,上海市宝山区南秀雅苑,1
1708,四季绿城,121.47599,31.33058,四季绿城,上海市宝山区四季绿城,1
1709,南行贤苑,121.514526,30.962879,南行贤苑,上海市奉贤区南行贤苑,1
1710,阳光二期,121.446541,30.901299,阳光二期,上海市奉贤区南桥镇阳光二期,1
1711,南行贤苑,121.514526,30.962879,南行贤苑,上海市奉贤区金汇镇齐贤万顺路南行贤苑,3
1712,齐贤南百小区,121.512459,30.954531,齐贤南百小区,上海市奉贤区金汇镇齐贤南百小区,5
1713,北蔡芳草路欧麦克KTV,121.556839,31.172991,北蔡芳草路欧麦克KTV,上海市浦东新区北蔡芳草路欧麦克KTV,1
1714,惠南镇锦江之星宾馆,121.700043,31.199623,惠南镇锦江之星宾馆,上海市浦东新区惠南镇锦江之星宾馆,1
1715,新高苑,121.620445,31.29067,新高苑,上海市浦东新区新高苑,1
1716,民乐城兰丽苑,121.737137,31.064249,民乐城兰丽苑,上海市浦东新区民乐城兰丽苑,1
1717,金京路地铁站,121.766991,31.053932,金京路地铁站,上海市浦东新区金京路地铁站,1
1718,阳光花城,121.622902,31.207769,阳光花城,上海市浦东新区阳光花城,1
1719,上海贺普药业股份有限公司,121.657356,31.320013,上海贺普药业股份有限公司,上海市浦东新区上海贺普药业股份有限公司,1
1720,汤臣豪园四期,121.585335,31.209278,汤臣豪园四期,上海市浦东新区汤臣豪园四期,1
1721,浦东国际机场,121.808853,31.151133,浦东国际机场,上海市浦东新区浦东国际机场,1
1722,证大家园,121.601028,31.282129,证大家园,上海市浦东新区证大家园,1
1723,陆家嘴锦绣前城,121.536339,31.19557,陆家嘴锦绣前城,上海市浦东新区陆家嘴锦绣前城,1
1724,地杰国际城E欧泊时光,121.576233,31.157391,地杰国际城E欧泊时光,上海市浦东新区地杰国际城E欧泊时光,1
1725,绿地崴廉公寓,121.61319,31.290377,绿地崴廉公寓,上海市浦东新区绿地崴廉公寓,1
1726,绿林路51弄,121.548279,31.173469,绿林路51弄,上海市浦东新区绿林路51弄,1
1727,宁武路218弄,121.54556,31.26775,宁武路218弄,上海市杨浦区定海路街道宁武路218弄,1
1728,沃天百联生活超市(新桥店),121.316254,31.066111,沃天百联生活超市(新桥店),上海市松江区沃天百联生活超市(新桥店),1
1729,华兴小区,121.336342,31.06971,华兴小区,上海市松江区新桥镇华兴小区,1
1730,久阳文华府邸,121.193558,31.041071,久阳文华府邸,上海市松江区久阳文华府邸,1
1731,乐都西路1636弄,121.187535,31.013995,乐都西路1636弄,上海市松江区乐都西路1636弄,1
1732,亭中小区,121.322739,31.127291,亭中小区,上海市松江区亭中小区,1
1733,地铁九号线九亭站,121.229729,31.10471,地铁九号线九亭站,上海市松江区地铁九号线九亭站,1
1734,松江大学城站,121.232498,31.053949,松江大学城站,上海市松江区松江大学城站,1
1735,新凯家园一期,121.23413,31.10654,新凯家园一期,上海市松江区新凯家园一期,1
1736,,119.645233,25.915541,仙岐村,福建省福州市长乐区漳港街道仙岐村,1
1737,,119.630707,25.928499,龙峰村,福建省福州市长乐区漳港街道龙峰村,1
1738,,119.505234,25.957411,航辉社区,福建省福州市长乐区航城街道航辉社区,2
1739,江南水都名筑,119.279671,26.044538,江南水都名筑,福建省福州市仓山区江南水都名筑,1
1740,武夷春晓,119.278748,26.087931,武夷春晓,福建省福州市鼓楼区洪山镇武夷春晓,1
1741,宏宙花园,119.543777,26.19665,宏宙花园,福建省福州市连江县敖江镇长汀村宏宙花园,1
1742,,119.670029,26.34691,北营村,福建省福州市连江县官坂镇北营村,2
1743,,119.53957,26.19753,潘渡,福建省福州市连江县潘渡,1
1744,,119.660393,26.34955,龙头村,福建省福州市连江县透堡镇龙头村,1
1745,,119.635048,26.376419,东湾村,福建省福州市连江县马鼻镇东湾村,2
1746,,119.660141,26.371309,墙兜村,福建省福州市连江县马鼻镇墙兜村,1
1747,,118.73912,26.53031,长岭村,福建省宁德市古田县城西街道长岭村,3
1748,,118.733963,26.541981,大洋坑村,福建省宁德市古田县大洋坑村,1
1749,,118.404404,25.301729,外碧村,福建省泉州市永春县东关镇外碧村,1
1750,,118.337349,25.303881,太平村,福建省泉州市永春县东平镇太平村,1
1751,,118.454689,25.324169,碧卿林场,福建省泉州市永春县外山乡碧卿林场,1
1752,,118.302193,25.32023,太坪新村,福建省泉州市永春县桃城镇太坪新村,1
1753,永春新华都超市,118.295059,25.324575,永春新华都超市,福建省泉州市永春县永春新华都超市,1
1754,,118.406357,25.36853,龙山村,福建省泉州市永春县湖洋镇龙山村,1
1755,金龙城董记咯摊,118.2967,25.323311,金龙城董记咯摊,福建省泉州市永春县金龙城董记咯摊,1
1756,,118.042648,25.36014,新珩村,福建省泉州市永春县玉斗镇新珩村,1
1757,,118.039238,25.390621,玉斗村,福建省泉州市永春县玉斗镇玉斗村,1
1758,,118.653152,24.75823,后垵村,福建省泉州市石狮市宝盖镇后垵村,1
1759,山前东区,118.700615,24.748087,山前东区,福建省泉州市石狮市蚶江镇山前东区,1
1760,潘内村顶道坝,118.628922,25.13941,潘内村顶道坝,福建省泉州市洛江区马甲镇潘内村顶道坝,1
1761,杏坂社区,118.620865,24.78231,杏坂社区,福建省泉州市晋江市新塘街道杏坂社区,1
1762,沙塘社区,118.597733,24.785004,沙塘社区,福建省泉州市晋江市新塘街道沙塘社区,1
1763,,118.561378,24.59651,嘉排村,福建省泉州市晋江市英林镇嘉排村,1
1764,,118.573624,24.619471,西埔村,福建省泉州市晋江市英林镇西埔村,1
1765,泉安中路速8酒店,118.583412,24.809299,泉安中路速8酒店,福建省泉州市晋江市梅岭街道泉安中路速8酒店,1
1766,晋南小区,118.583138,24.632277,晋南小区,福建省泉州市晋江市英林镇英林村晋南小区,1
1767,万佳东方酒店,118.595688,24.567921,万佳东方酒店,福建省泉州市晋江市金井镇万佳东方酒店,1
1768,,118.459267,24.659781,山兜村,福建省泉州市晋江市东石镇山兜村,1
1769,,118.606918,24.81802,花厅口村,福建省泉州市晋江市陈埭镇花厅口村,1
1770,中国工商银行南安柳城分行,118.39328,24.95573,中国工商银行南安柳城分行,福建省泉州市南安市中国工商银行南安柳城分行,1
1771,南安市行政服务中心,118.40686,24.95915,南安市行政服务中心,福建省泉州市南安市南安市行政服务中心,1
1772,后林埔,118.478668,24.86297,后林埔,福建省泉州市南安市官桥镇下洋村后林埔,1
1773,,118.4244,24.767229,内厝村,福建省泉州市南安市官桥镇内厝村,1
1774,,118.418541,24.79817,周厝村,福建省泉州市南安市官桥镇周厝村,1
1775,,118.369072,24.692369,仁福村,福建省泉州市南安市水头镇仁福村,1
1776,,118.34716,24.69047,劳光村,福建省泉州市南安市水头镇劳光村,1
1777,,118.321281,25.2024,大庭村,福建省泉州市南安市码头镇大庭村,1
1778,,118.236717,24.9666,良山村,福建省泉州市南安市英都镇良山村,1
1779,,118.280746,25.015791,园美村,福建省泉州市南安市仑苍镇园美村,1
1780,,118.284332,25.005079,湖西新村,福建省泉州市南安市仑苍镇湖西新村,1
1781,,118.291061,25.007139,联盟村,福建省泉州市南安市仑苍镇联盟村,1
1782,水头菜市场桥西街,118.430664,24.708244,水头菜市场桥西街,福建省泉州市南安市水头菜市场桥西街,1
1783,溪口村,118.473648,24.99119,溪口村,福建省泉州市南安市美林街道溪口村,1
1784,西美村,118.393318,24.98402,西美村,福建省泉州市南安市美林街道西美村,1
1785,,118.161377,25.071381,仙苑村,福建省泉州市安溪县城厢镇仙苑村,1
1786,,117.962929,25.252769,中洋街,福建省泉州市安溪县湖上乡雪山村中洋街,1
1787,安溪清水岩,118.124275,25.122292,安溪清水岩,福建省泉州市安溪县安溪清水岩,1
1788,,118.074791,25.022949,恒美村,福建省泉州市安溪县官桥镇恒美村,1
1789,,118.882057,24.905621,青山街,福建省泉州市惠安县山霞镇东坑村青山街,1
1790,,118.864159,24.90695,田边村,福建省泉州市惠安县山霞镇田边村,1
1791,,118.811958,24.983709,庄内村,福建省泉州市惠安县涂寨镇庄内村,1
1792,珑景湾小区,118.556358,24.93256,珑景湾小区,福建省泉州市鲤城区浮桥街道延陵社区珑景湾小区,1
1793,海景国际星域,118.624557,24.874359,海景国际星域,福建省泉州市丰泽区东海街道海景社区海景国际星域,1
1794,东莲花苑,118.649406,24.91396,东莲花苑,福建省泉州市丰泽区城东街道浔美社区东莲花苑,1
1795,万辉国际城,119.017303,25.46697,万辉国际城,福建省莆田市城厢区万辉国际城,1
1796,外贸宿舍,119.013527,25.424191,外贸宿舍,福建省莆田市城厢区凤凰山街道南门吉祥街外贸宿舍,1
1797,,118.884644,25.5361,金川村,福建省莆田市城厢区常太镇金川村,1
1798,,119.018372,25.306669,柯朱村,福建省莆田市城厢区柯朱村,1
1799,,119.035439,25.278299,太湖村,福建省莆田市城厢区灵川镇太湖村,1
1800,豪悦御景,119.003128,25.447611,豪悦御景,福建省莆田市城厢区荔城中大道豪悦御景,1
1801,,118.950058,25.276381,西黄村,福建省莆田市城厢区东海镇西黄村,1
1802,铺头村新厝,118.750458,25.23278,铺头村新厝,福建省莆田市仙游县枫亭镇铺头村新厝,1
1803,星庄村刘前,118.833412,25.38859,星庄村刘前,福建省莆田市仙游县盖尾镇星庄村刘前,1
1804,金沙村上库,118.577957,25.321251,金沙村上库,福建省莆田市仙游县龙华镇金沙村上库,1
1805,洋坑村柯厝,118.590729,25.363359,洋坑村柯厝,福建省莆田市仙游县大济镇洋坑村柯厝,1
